[ { "Latitude" : 46.948, "Longitude" : 7.4481, "City" : "Bern", "Value" : 10.705, "id" : "1" }, { "Latitude" : 41.8955, "Longitude" : 12.4823, "City" : "Rome", "Value" : 5.343, "id" : "1" }, { "Latitude" : 46.948, "Longitude" : 7.4481, "City" : "Bern", "Value" : 10.705, "id" : "2" }, { "Latitude" : 41.8955, "Longitude" : 12.4823, "City" : "Rome", "Value" : 5.343, "id" : "2" }, { "Latitude" : 50.0878, "Longitude" : 14.4205, "City" : "Prague", "Value" : 3.332, "id" : "2" }, { "Latitude" : 49.1919, "Longitude" : -2.1071, "City" : "Saint Helier", "Value" : 3.33, "id" : "3" }, { "Latitude" : 46.948, "Longitude" : 7.4481, "City" : "Bern", "Value" : 10.705, "id" : "3" }, { "Latitude" : 41.8955, "Longitude" : 12.4823, "City" : "Rome", "Value" : 5.343, "id" : "3" }, { "Latitude" : 50.0878, "Longitude" : 14.4205, "City" : "Prague", "Value" : 3.332, "id" : "3" }, { "Latitude" : 41.8955, "Longitude" : 12.4823, "City" : "Rome", "Value" : 5.343, "id" : "4" }, { "Latitude" : 46.948, "Longitude" : 7.4481, "City" : "Bern", "Value" : 10.705, "id" : "4" }, { "Latitude" : 50.0878, "Longitude" : 14.4205, "City" : "Prague", "Value" : 3.332, "id" : "4" }, { "Latitude" : 44.4479, "Longitude" : 26.0979, "City" : "Bucharest", "Value" : 3.143, "id" : "4" }, { "Latitude" : 49.1919, "Longitude" : -2.1071, "City" : "Saint Helier", "Value" : 3.33, "id" : "4" }, { "Latitude" : 46.948, "Longitude" : 7.4481, "City" : "Bern", "Value" : 10.705, "id" : "5" }, { "Latitude" : 41.8955, "Longitude" : 12.4823, "City" : "Rome", "Value" : 5.343, "id" : "5" }, { "Latitude" : 50.0878, "Longitude" : 14.4205, "City" : "Prague", "Value" : 3.332, "id" : "5" }, { "Latitude" : 44.4479, "Longitude" : 26.0979, "City" : "Bucharest", "Value" : 3.143, "id" : "5" }, { "Latitude" : 49.1919, "Longitude" : -2.1071, "City" : "Saint Helier", "Value" : 3.33, "id" : "5" }, { "Latitude" : 36.1377, "Longitude" : -5.3453, "City" : "Gibraltar", "Value" : 2.644, "id" : "5" }, { "Latitude" : 59.9138, "Longitude" : 10.7387, "City" : "Oslo", "Value" : 2.531, "id" : "6" }, { "Latitude" : 50.0878, "Longitude" : 14.4205, "City" : "Prague", "Value" : 3.332, "id" : "6" }, { "Latitude" : 46.948, "Longitude" : 7.4481, "City" : "Bern", "Value" : 10.705, "id" : "6" }, { "Latitude" : 41.8955, "Longitude" : 12.4823, "City" : "Rome", "Value" : 5.343, "id" : "6" }, { "Latitude" : 44.4479, "Longitude" : 26.0979, "City" : "Bucharest", "Value" : 3.143, "id" : "6" }, { "Latitude" : 49.1919, "Longitude" : -2.1071, "City" : "Saint Helier", "Value" : 3.33, "id" : "6" }, { "Latitude" : 36.1377, "Longitude" : -5.3453, "City" : "Gibraltar", "Value" : 2.644, "id" : "6" }, { "Latitude" : 36.1377, "Longitude" : -5.3453, "City" : "Gibraltar", "Value" : 2.644, "id" : "7" }, { "Latitude" : 49.1919, "Longitude" : -2.1071, "City" : "Saint Helier", "Value" : 3.33, "id" : "7" }, { "Latitude" : 46.948, "Longitude" : 7.4481, "City" : "Bern", "Value" : 10.705, "id" : "7" }, { "Latitude" : 41.8955, "Longitude" : 12.4823, "City" : "Rome", "Value" : 5.343, "id" : "7" }, { "Latitude" : 35.9042, "Longitude" : 14.5189, "City" : "Valletta", "Value" : 1.765, "id" : "7" }, { "Latitude" : 50.0878, "Longitude" : 14.4205, "City" : "Prague", "Value" : 3.332, "id" : "7" }, { "Latitude" : 59.9138, "Longitude" : 10.7387, "City" : "Oslo", "Value" : 2.531, "id" : "7" }, { "Latitude" : 44.4479, "Longitude" : 26.0979, "City" : "Bucharest", "Value" : 3.143, "id" : "7" }, { "Latitude" : 41.8955, "Longitude" : 12.4823, "City" : "Rome", "Value" : 5.343, "id" : "8" }, { "Latitude" : 43.7325, "Longitude" : 7.4189, "City" : "Monaco", "Value" : 1.719, "id" : "8" }, { "Latitude" : 46.948, "Longitude" : 7.4481, "City" : "Bern", "Value" : 10.705, "id" : "8" }, { "Latitude" : 50.0878, "Longitude" : 14.4205, "City" : "Prague", "Value" : 3.332, "id" : "8" }, { "Latitude" : 59.9138, "Longitude" : 10.7387, "City" : "Oslo", "Value" : 2.531, "id" : "8" }, { "Latitude" : 49.1919, "Longitude" : -2.1071, "City" : "Saint Helier", "Value" : 3.33, "id" : "8" }, { "Latitude" : 36.1377, "Longitude" : -5.3453, "City" : "Gibraltar", "Value" : 2.644, "id" : "8" }, { "Latitude" : 35.9042, "Longitude" : 14.5189, "City" : "Valletta", "Value" : 1.765, "id" : "8" }, { "Latitude" : 44.4479, "Longitude" : 26.0979, "City" : "Bucharest", "Value" : 3.143, "id" : "8" }, { "Latitude" : 36.1377, "Longitude" : -5.3453, "City" : "Gibraltar", "Value" : 2.644, "id" : "9" }, { "Latitude" : 49.1919, "Longitude" : -2.1071, "City" : "Saint Helier", "Value" : 3.33, "id" : "9" }, { "Latitude" : 46.948, "Longitude" : 7.4481, "City" : "Bern", "Value" : 10.705, "id" : "9" }, { "Latitude" : 43.7325, "Longitude" : 7.4189, "City" : "Monaco", "Value" : 1.719, "id" : "9" }, { "Latitude" : 41.8955, "Longitude" : 12.4823, "City" : "Rome", "Value" : 5.343, "id" : "9" }, { "Latitude" : 35.9042, "Longitude" : 14.5189, "City" : "Valletta", "Value" : 1.765, "id" : "9" }, { "Latitude" : 47.4984, "Longitude" : 19.0408, "City" : "Budapest", "Value" : 1.709, "id" : "9" }, { "Latitude" : 50.0878, "Longitude" : 14.4205, "City" : "Prague", "Value" : 3.332, "id" : "9" }, { "Latitude" : 59.9138, "Longitude" : 10.7387, "City" : "Oslo", "Value" : 2.531, "id" : "9" }, { "Latitude" : 44.4479, "Longitude" : 26.0979, "City" : "Bucharest", "Value" : 3.143, "id" : "9" }, { "Latitude" : 47.0167, "Longitude" : 28.8497, "City" : "Chisinau", "Value" : 1.622, "id" : "10" }, { "Latitude" : 44.4479, "Longitude" : 26.0979, "City" : "Bucharest", "Value" : 3.143, "id" : "10" }, { "Latitude" : 47.4984, "Longitude" : 19.0408, "City" : "Budapest", "Value" : 1.709, "id" : "10" }, { "Latitude" : 50.0878, "Longitude" : 14.4205, "City" : "Prague", "Value" : 3.332, "id" : "10" }, { "Latitude" : 46.948, "Longitude" : 7.4481, "City" : "Bern", "Value" : 10.705, "id" : "10" }, { "Latitude" : 43.7325, "Longitude" : 7.4189, "City" : "Monaco", "Value" : 1.719, "id" : "10" }, { "Latitude" : 41.8955, "Longitude" : 12.4823, "City" : "Rome", "Value" : 5.343, "id" : "10" }, { "Latitude" : 35.9042, "Longitude" : 14.5189, "City" : "Valletta", "Value" : 1.765, "id" : "10" }, { "Latitude" : 36.1377, "Longitude" : -5.3453, "City" : "Gibraltar", "Value" : 2.644, "id" : "10" }, { "Latitude" : 49.1919, "Longitude" : -2.1071, "City" : "Saint Helier", "Value" : 3.33, "id" : "10" }, { "Latitude" : 59.9138, "Longitude" : 10.7387, "City" : "Oslo", "Value" : 2.531, "id" : "10" }, { "Latitude" : 35.9042, "Longitude" : 14.5189, "City" : "Valletta", "Value" : 1.765, "id" : "11" }, { "Latitude" : 41.8955, "Longitude" : 12.4823, "City" : "Rome", "Value" : 5.343, "id" : "11" }, { "Latitude" : 43.7325, "Longitude" : 7.4189, "City" : "Monaco", "Value" : 1.719, "id" : "11" }, { "Latitude" : 46.948, "Longitude" : 7.4481, "City" : "Bern", "Value" : 10.705, "id" : "11" }, { "Latitude" : 50.0878, "Longitude" : 14.4205, "City" : "Prague", "Value" : 3.332, "id" : "11" }, { "Latitude" : 47.4984, "Longitude" : 19.0408, "City" : "Budapest", "Value" : 1.709, "id" : "11" }, { "Latitude" : 44.4479, "Longitude" : 26.0979, "City" : "Bucharest", "Value" : 3.143, "id" : "11" }, { "Latitude" : 47.0167, "Longitude" : 28.8497, "City" : "Chisinau", "Value" : 1.622, "id" : "11" }, { "Latitude" : 54.6896, "Longitude" : 25.2799, "City" : "Vilnius", "Value" : 1.608, "id" : "11" }, { "Latitude" : 59.9138, "Longitude" : 10.7387, "City" : "Oslo", "Value" : 2.531, "id" : "11" }, { "Latitude" : 49.1919, "Longitude" : -2.1071, "City" : "Saint Helier", "Value" : 3.33, "id" : "11" }, { "Latitude" : 36.1377, "Longitude" : -5.3453, "City" : "Gibraltar", "Value" : 2.644, "id" : "11" }, { "Latitude" : 36.1377, "Longitude" : -5.3453, "City" : "Gibraltar", "Value" : 2.644, "id" : "12" }, { "Latitude" : 49.1919, "Longitude" : -2.1071, "City" : "Saint Helier", "Value" : 3.33, "id" : "12" }, { "Latitude" : 49.466, "Longitude" : -2.5522, "City" : "Saint Peter Port", "Value" : 1.451, "id" : "12" }, { "Latitude" : 46.948, "Longitude" : 7.4481, "City" : "Bern", "Value" : 10.705, "id" : "12" }, { "Latitude" : 43.7325, "Longitude" : 7.4189, "City" : "Monaco", "Value" : 1.719, "id" : "12" }, { "Latitude" : 41.8955, "Longitude" : 12.4823, "City" : "Rome", "Value" : 5.343, "id" : "12" }, { "Latitude" : 35.9042, "Longitude" : 14.5189, "City" : "Valletta", "Value" : 1.765, "id" : "12" }, { "Latitude" : 47.4984, "Longitude" : 19.0408, "City" : "Budapest", "Value" : 1.709, "id" : "12" }, { "Latitude" : 50.0878, "Longitude" : 14.4205, "City" : "Prague", "Value" : 3.332, "id" : "12" }, { "Latitude" : 59.9138, "Longitude" : 10.7387, "City" : "Oslo", "Value" : 2.531, "id" : "12" }, { "Latitude" : 54.6896, "Longitude" : 25.2799, "City" : "Vilnius", "Value" : 1.608, "id" : "12" }, { "Latitude" : 47.0167, "Longitude" : 28.8497, "City" : "Chisinau", "Value" : 1.622, "id" : "12" }, { "Latitude" : 44.4479, "Longitude" : 26.0979, "City" : "Bucharest", "Value" : 3.143, "id" : "12" }, { "Latitude" : 47.4984, "Longitude" : 19.0408, "City" : "Budapest", "Value" : 1.709, "id" : "13" }, { "Latitude" : 50.0878, "Longitude" : 14.4205, "City" : "Prague", "Value" : 3.332, "id" : "13" }, { "Latitude" : 46.948, "Longitude" : 7.4481, "City" : "Bern", "Value" : 10.705, "id" : "13" }, { "Latitude" : 49.61, "Longitude" : 6.1296, "City" : "Luxembourg", "Value" : 1.431, "id" : "13" }, { "Latitude" : 43.7325, "Longitude" : 7.4189, "City" : "Monaco", "Value" : 1.719, "id" : "13" }, { "Latitude" : 41.8955, "Longitude" : 12.4823, "City" : "Rome", "Value" : 5.343, "id" : "13" }, { "Latitude" : 35.9042, "Longitude" : 14.5189, "City" : "Valletta", "Value" : 1.765, "id" : "13" }, { "Latitude" : 44.4479, "Longitude" : 26.0979, "City" : "Bucharest", "Value" : 3.143, "id" : "13" }, { "Latitude" : 47.0167, "Longitude" : 28.8497, "City" : "Chisinau", "Value" : 1.622, "id" : "13" }, { "Latitude" : 54.6896, "Longitude" : 25.2799, "City" : "Vilnius", "Value" : 1.608, "id" : "13" }, { "Latitude" : 59.9138, "Longitude" : 10.7387, "City" : "Oslo", "Value" : 2.531, "id" : "13" }, { "Latitude" : 49.1919, "Longitude" : -2.1071, "City" : "Saint Helier", "Value" : 3.33, "id" : "13" }, { "Latitude" : 49.466, "Longitude" : -2.5522, "City" : "Saint Peter Port", "Value" : 1.451, "id" : "13" }, { "Latitude" : 36.1377, "Longitude" : -5.3453, "City" : "Gibraltar", "Value" : 2.644, "id" : "13" }, { "Latitude" : 44.4479, "Longitude" : 26.0979, "City" : "Bucharest", "Value" : 3.143, "id" : "14" }, { "Latitude" : 47.0167, "Longitude" : 28.8497, "City" : "Chisinau", "Value" : 1.622, "id" : "14" }, { "Latitude" : 54.6896, "Longitude" : 25.2799, "City" : "Vilnius", "Value" : 1.608, "id" : "14" }, { "Latitude" : 47.4984, "Longitude" : 19.0408, "City" : "Budapest", "Value" : 1.709, "id" : "14" }, { "Latitude" : 48.2092, "Longitude" : 16.3728, "City" : "Vienna", "Value" : 1.407, "id" : "14" }, { "Latitude" : 50.0878, "Longitude" : 14.4205, "City" : "Prague", "Value" : 3.332, "id" : "14" }, { "Latitude" : 46.948, "Longitude" : 7.4481, "City" : "Bern", "Value" : 10.705, "id" : "14" }, { "Latitude" : 49.61, "Longitude" : 6.1296, "City" : "Luxembourg", "Value" : 1.431, "id" : "14" }, { "Latitude" : 43.7325, "Longitude" : 7.4189, "City" : "Monaco", "Value" : 1.719, "id" : "14" }, { "Latitude" : 41.8955, "Longitude" : 12.4823, "City" : "Rome", "Value" : 5.343, "id" : "14" }, { "Latitude" : 35.9042, "Longitude" : 14.5189, "City" : "Valletta", "Value" : 1.765, "id" : "14" }, { "Latitude" : 36.1377, "Longitude" : -5.3453, "City" : "Gibraltar", "Value" : 2.644, "id" : "14" }, { "Latitude" : 49.1919, "Longitude" : -2.1071, "City" : "Saint Helier", "Value" : 3.33, "id" : "14" }, { "Latitude" : 49.466, "Longitude" : -2.5522, "City" : "Saint Peter Port", "Value" : 1.451, "id" : "14" }, { "Latitude" : 59.9138, "Longitude" : 10.7387, "City" : "Oslo", "Value" : 2.531, "id" : "14" }, { "Latitude" : 44.4479, "Longitude" : 26.0979, "City" : "Bucharest", "Value" : 3.143, "id" : "15" }, { "Latitude" : 47.0167, "Longitude" : 28.8497, "City" : "Chisinau", "Value" : 1.622, "id" : "15" }, { "Latitude" : 54.6896, "Longitude" : 25.2799, "City" : "Vilnius", "Value" : 1.608, "id" : "15" }, { "Latitude" : 47.4984, "Longitude" : 19.0408, "City" : "Budapest", "Value" : 1.709, "id" : "15" }, { "Latitude" : 48.2092, "Longitude" : 16.3728, "City" : "Vienna", "Value" : 1.407, "id" : "15" }, { "Latitude" : 50.0878, "Longitude" : 14.4205, "City" : "Prague", "Value" : 3.332, "id" : "15" }, { "Latitude" : 46.948, "Longitude" : 7.4481, "City" : "Bern", "Value" : 10.705, "id" : "15" }, { "Latitude" : 49.61, "Longitude" : 6.1296, "City" : "Luxembourg", "Value" : 1.431, "id" : "15" }, { "Latitude" : 43.7325, "Longitude" : 7.4189, "City" : "Monaco", "Value" : 1.719, "id" : "15" }, { "Latitude" : 41.8955, "Longitude" : 12.4823, "City" : "Rome", "Value" : 5.343, "id" : "15" }, { "Latitude" : 35.9042, "Longitude" : 14.5189, "City" : "Valletta", "Value" : 1.765, "id" : "15" }, { "Latitude" : 42.674, "Longitude" : 21.1788, "City" : "Prishtine", "Value" : 1.385, "id" : "15" }, { "Latitude" : 59.9138, "Longitude" : 10.7387, "City" : "Oslo", "Value" : 2.531, "id" : "15" }, { "Latitude" : 49.1919, "Longitude" : -2.1071, "City" : "Saint Helier", "Value" : 3.33, "id" : "15" }, { "Latitude" : 49.466, "Longitude" : -2.5522, "City" : "Saint Peter Port", "Value" : 1.451, "id" : "15" }, { "Latitude" : 36.1377, "Longitude" : -5.3453, "City" : "Gibraltar", "Value" : 2.644, "id" : "15" }, { "Latitude" : 49.1919, "Longitude" : -2.1071, "City" : "Saint Helier", "Value" : 3.33, "id" : "16" }, { "Latitude" : 49.466, "Longitude" : -2.5522, "City" : "Saint Peter Port", "Value" : 1.451, "id" : "16" }, { "Latitude" : 49.61, "Longitude" : 6.1296, "City" : "Luxembourg", "Value" : 1.431, "id" : "16" }, { "Latitude" : 46.948, "Longitude" : 7.4481, "City" : "Bern", "Value" : 10.705, "id" : "16" }, { "Latitude" : 43.7325, "Longitude" : 7.4189, "City" : "Monaco", "Value" : 1.719, "id" : "16" }, { "Latitude" : 41.8955, "Longitude" : 12.4823, "City" : "Rome", "Value" : 5.343, "id" : "16" }, { "Latitude" : 35.9042, "Longitude" : 14.5189, "City" : "Valletta", "Value" : 1.765, "id" : "16" }, { "Latitude" : 42.674, "Longitude" : 21.1788, "City" : "Prishtine", "Value" : 1.385, "id" : "16" }, { "Latitude" : 44.4479, "Longitude" : 26.0979, "City" : "Bucharest", "Value" : 3.143, "id" : "16" }, { "Latitude" : 47.0167, "Longitude" : 28.8497, "City" : "Chisinau", "Value" : 1.622, "id" : "16" }, { "Latitude" : 54.6896, "Longitude" : 25.2799, "City" : "Vilnius", "Value" : 1.608, "id" : "16" }, { "Latitude" : 47.4984, "Longitude" : 19.0408, "City" : "Budapest", "Value" : 1.709, "id" : "16" }, { "Latitude" : 48.2116, "Longitude" : 17.1547, "City" : "Bratislava", "Value" : 1.313, "id" : "16" }, { "Latitude" : 48.2092, "Longitude" : 16.3728, "City" : "Vienna", "Value" : 1.407, "id" : "16" }, { "Latitude" : 50.0878, "Longitude" : 14.4205, "City" : "Prague", "Value" : 3.332, "id" : "16" }, { "Latitude" : 59.9138, "Longitude" : 10.7387, "City" : "Oslo", "Value" : 2.531, "id" : "16" }, { "Latitude" : 36.1377, "Longitude" : -5.3453, "City" : "Gibraltar", "Value" : 2.644, "id" : "16" }, { "Latitude" : 59.9138, "Longitude" : 10.7387, "City" : "Oslo", "Value" : 2.531, "id" : "17" }, { "Latitude" : 50.0878, "Longitude" : 14.4205, "City" : "Prague", "Value" : 3.332, "id" : "17" }, { "Latitude" : 48.2092, "Longitude" : 16.3728, "City" : "Vienna", "Value" : 1.407, "id" : "17" }, { "Latitude" : 48.2116, "Longitude" : 17.1547, "City" : "Bratislava", "Value" : 1.313, "id" : "17" }, { "Latitude" : 47.4984, "Longitude" : 19.0408, "City" : "Budapest", "Value" : 1.709, "id" : "17" }, { "Latitude" : 42.674, "Longitude" : 21.1788, "City" : "Prishtine", "Value" : 1.385, "id" : "17" }, { "Latitude" : 44.4479, "Longitude" : 26.0979, "City" : "Bucharest", "Value" : 3.143, "id" : "17" }, { "Latitude" : 47.0167, "Longitude" : 28.8497, "City" : "Chisinau", "Value" : 1.622, "id" : "17" }, { "Latitude" : 54.6896, "Longitude" : 25.2799, "City" : "Vilnius", "Value" : 1.608, "id" : "17" }, { "Latitude" : 55.7558, "Longitude" : 37.6176, "City" : "Moscow", "Value" : 1.281, "id" : "17" }, { "Latitude" : 41.8955, "Longitude" : 12.4823, "City" : "Rome", "Value" : 5.343, "id" : "17" }, { "Latitude" : 43.7325, "Longitude" : 7.4189, "City" : "Monaco", "Value" : 1.719, "id" : "17" }, { "Latitude" : 46.948, "Longitude" : 7.4481, "City" : "Bern", "Value" : 10.705, "id" : "17" }, { "Latitude" : 49.61, "Longitude" : 6.1296, "City" : "Luxembourg", "Value" : 1.431, "id" : "17" }, { "Latitude" : 49.1919, "Longitude" : -2.1071, "City" : "Saint Helier", "Value" : 3.33, "id" : "17" }, { "Latitude" : 49.466, "Longitude" : -2.5522, "City" : "Saint Peter Port", "Value" : 1.451, "id" : "17" }, { "Latitude" : 36.1377, "Longitude" : -5.3453, "City" : "Gibraltar", "Value" : 2.644, "id" : "17" }, { "Latitude" : 35.9042, "Longitude" : 14.5189, "City" : "Valletta", "Value" : 1.765, "id" : "17" }, { "Latitude" : 42.0024, "Longitude" : 21.4361, "City" : "Skopje", "Value" : 1.206, "id" : "18" }, { "Latitude" : 42.674, "Longitude" : 21.1788, "City" : "Prishtine", "Value" : 1.385, "id" : "18" }, { "Latitude" : 44.4479, "Longitude" : 26.0979, "City" : "Bucharest", "Value" : 3.143, "id" : "18" }, { "Latitude" : 47.0167, "Longitude" : 28.8497, "City" : "Chisinau", "Value" : 1.622, "id" : "18" }, { "Latitude" : 54.6896, "Longitude" : 25.2799, "City" : "Vilnius", "Value" : 1.608, "id" : "18" }, { "Latitude" : 47.4984, "Longitude" : 19.0408, "City" : "Budapest", "Value" : 1.709, "id" : "18" }, { "Latitude" : 48.2116, "Longitude" : 17.1547, "City" : "Bratislava", "Value" : 1.313, "id" : "18" }, { "Latitude" : 48.2092, "Longitude" : 16.3728, "City" : "Vienna", "Value" : 1.407, "id" : "18" }, { "Latitude" : 50.0878, "Longitude" : 14.4205, "City" : "Prague", "Value" : 3.332, "id" : "18" }, { "Latitude" : 46.948, "Longitude" : 7.4481, "City" : "Bern", "Value" : 10.705, "id" : "18" }, { "Latitude" : 49.61, "Longitude" : 6.1296, "City" : "Luxembourg", "Value" : 1.431, "id" : "18" }, { "Latitude" : 43.7325, "Longitude" : 7.4189, "City" : "Monaco", "Value" : 1.719, "id" : "18" }, { "Latitude" : 41.8955, "Longitude" : 12.4823, "City" : "Rome", "Value" : 5.343, "id" : "18" }, { "Latitude" : 35.9042, "Longitude" : 14.5189, "City" : "Valletta", "Value" : 1.765, "id" : "18" }, { "Latitude" : 36.1377, "Longitude" : -5.3453, "City" : "Gibraltar", "Value" : 2.644, "id" : "18" }, { "Latitude" : 49.1919, "Longitude" : -2.1071, "City" : "Saint Helier", "Value" : 3.33, "id" : "18" }, { "Latitude" : 49.466, "Longitude" : -2.5522, "City" : "Saint Peter Port", "Value" : 1.451, "id" : "18" }, { "Latitude" : 59.9138, "Longitude" : 10.7387, "City" : "Oslo", "Value" : 2.531, "id" : "18" }, { "Latitude" : 55.7558, "Longitude" : 37.6176, "City" : "Moscow", "Value" : 1.281, "id" : "18" }, { "Latitude" : 49.1919, "Longitude" : -2.1071, "City" : "Saint Helier", "Value" : 3.33, "id" : "19" }, { "Latitude" : 49.466, "Longitude" : -2.5522, "City" : "Saint Peter Port", "Value" : 1.451, "id" : "19" }, { "Latitude" : 49.61, "Longitude" : 6.1296, "City" : "Luxembourg", "Value" : 1.431, "id" : "19" }, { "Latitude" : 46.948, "Longitude" : 7.4481, "City" : "Bern", "Value" : 10.705, "id" : "19" }, { "Latitude" : 43.7325, "Longitude" : 7.4189, "City" : "Monaco", "Value" : 1.719, "id" : "19" }, { "Latitude" : 41.8955, "Longitude" : 12.4823, "City" : "Rome", "Value" : 5.343, "id" : "19" }, { "Latitude" : 35.9042, "Longitude" : 14.5189, "City" : "Valletta", "Value" : 1.765, "id" : "19" }, { "Latitude" : 42.0024, "Longitude" : 21.4361, "City" : "Skopje", "Value" : 1.206, "id" : "19" }, { "Latitude" : 42.674, "Longitude" : 21.1788, "City" : "Prishtine", "Value" : 1.385, "id" : "19" }, { "Latitude" : 44.4479, "Longitude" : 26.0979, "City" : "Bucharest", "Value" : 3.143, "id" : "19" }, { "Latitude" : 47.0167, "Longitude" : 28.8497, "City" : "Chisinau", "Value" : 1.622, "id" : "19" }, { "Latitude" : 54.6896, "Longitude" : 25.2799, "City" : "Vilnius", "Value" : 1.608, "id" : "19" }, { "Latitude" : 47.4984, "Longitude" : 19.0408, "City" : "Budapest", "Value" : 1.709, "id" : "19" }, { "Latitude" : 48.2116, "Longitude" : 17.1547, "City" : "Bratislava", "Value" : 1.313, "id" : "19" }, { "Latitude" : 48.2092, "Longitude" : 16.3728, "City" : "Vienna", "Value" : 1.407, "id" : "19" }, { "Latitude" : 50.0878, "Longitude" : 14.4205, "City" : "Prague", "Value" : 3.332, "id" : "19" }, { "Latitude" : 59.9138, "Longitude" : 10.7387, "City" : "Oslo", "Value" : 2.531, "id" : "19" }, { "Latitude" : 40.4167, "Longitude" : -3.7033, "City" : "Madrid", "Value" : 1.157, "id" : "19" }, { "Latitude" : 36.1377, "Longitude" : -5.3453, "City" : "Gibraltar", "Value" : 2.644, "id" : "19" }, { "Latitude" : 55.7558, "Longitude" : 37.6176, "City" : "Moscow", "Value" : 1.281, "id" : "19" }, { "Latitude" : 41.8955, "Longitude" : 12.4823, "City" : "Rome", "Value" : 5.343, "id" : "20" }, { "Latitude" : 43.7325, "Longitude" : 7.4189, "City" : "Monaco", "Value" : 1.719, "id" : "20" }, { "Latitude" : 46.948, "Longitude" : 7.4481, "City" : "Bern", "Value" : 10.705, "id" : "20" }, { "Latitude" : 49.61, "Longitude" : 6.1296, "City" : "Luxembourg", "Value" : 1.431, "id" : "20" }, { "Latitude" : 49.1919, "Longitude" : -2.1071, "City" : "Saint Helier", "Value" : 3.33, "id" : "20" }, { "Latitude" : 49.466, "Longitude" : -2.5522, "City" : "Saint Peter Port", "Value" : 1.451, "id" : "20" }, { "Latitude" : 40.4167, "Longitude" : -3.7033, "City" : "Madrid", "Value" : 1.157, "id" : "20" }, { "Latitude" : 36.1377, "Longitude" : -5.3453, "City" : "Gibraltar", "Value" : 2.644, "id" : "20" }, { "Latitude" : 35.9042, "Longitude" : 14.5189, "City" : "Valletta", "Value" : 1.765, "id" : "20" }, { "Latitude" : 42.0024, "Longitude" : 21.4361, "City" : "Skopje", "Value" : 1.206, "id" : "20" }, { "Latitude" : 42.674, "Longitude" : 21.1788, "City" : "Prishtine", "Value" : 1.385, "id" : "20" }, { "Latitude" : 44.4479, "Longitude" : 26.0979, "City" : "Bucharest", "Value" : 3.143, "id" : "20" }, { "Latitude" : 47.0167, "Longitude" : 28.8497, "City" : "Chisinau", "Value" : 1.622, "id" : "20" }, { "Latitude" : 54.6896, "Longitude" : 25.2799, "City" : "Vilnius", "Value" : 1.608, "id" : "20" }, { "Latitude" : 47.4984, "Longitude" : 19.0408, "City" : "Budapest", "Value" : 1.709, "id" : "20" }, { "Latitude" : 48.2116, "Longitude" : 17.1547, "City" : "Bratislava", "Value" : 1.313, "id" : "20" }, { "Latitude" : 48.2092, "Longitude" : 16.3728, "City" : "Vienna", "Value" : 1.407, "id" : "20" }, { "Latitude" : 50.0878, "Longitude" : 14.4205, "City" : "Prague", "Value" : 3.332, "id" : "20" }, { "Latitude" : 59.9138, "Longitude" : 10.7387, "City" : "Oslo", "Value" : 2.531, "id" : "20" }, { "Latitude" : 62.0177, "Longitude" : -6.7719, "City" : "Torshavn (on Streymoy)", "Value" : 1.122, "id" : "20" }, { "Latitude" : 55.7558, "Longitude" : 37.6176, "City" : "Moscow", "Value" : 1.281, "id" : "20" }, { "Latitude" : 49.1919, "Longitude" : -2.1071, "City" : "Saint Helier", "Value" : 3.33, "id" : "21" }, { "Latitude" : 49.466, "Longitude" : -2.5522, "City" : "Saint Peter Port", "Value" : 1.451, "id" : "21" }, { "Latitude" : 49.61, "Longitude" : 6.1296, "City" : "Luxembourg", "Value" : 1.431, "id" : "21" }, { "Latitude" : 46.948, "Longitude" : 7.4481, "City" : "Bern", "Value" : 10.705, "id" : "21" }, { "Latitude" : 43.7325, "Longitude" : 7.4189, "City" : "Monaco", "Value" : 1.719, "id" : "21" }, { "Latitude" : 41.8955, "Longitude" : 12.4823, "City" : "Rome", "Value" : 5.343, "id" : "21" }, { "Latitude" : 48.1333, "Longitude" : 11.5666, "City" : "Munich", "Value" : 1.006, "id" : "21" }, { "Latitude" : 50.0878, "Longitude" : 14.4205, "City" : "Prague", "Value" : 3.332, "id" : "21" }, { "Latitude" : 48.2092, "Longitude" : 16.3728, "City" : "Vienna", "Value" : 1.407, "id" : "21" }, { "Latitude" : 48.2116, "Longitude" : 17.1547, "City" : "Bratislava", "Value" : 1.313, "id" : "21" }, { "Latitude" : 47.4984, "Longitude" : 19.0408, "City" : "Budapest", "Value" : 1.709, "id" : "21" }, { "Latitude" : 42.674, "Longitude" : 21.1788, "City" : "Prishtine", "Value" : 1.385, "id" : "21" }, { "Latitude" : 42.0024, "Longitude" : 21.4361, "City" : "Skopje", "Value" : 1.206, "id" : "21" }, { "Latitude" : 44.4479, "Longitude" : 26.0979, "City" : "Bucharest", "Value" : 3.143, "id" : "21" }, { "Latitude" : 47.0167, "Longitude" : 28.8497, "City" : "Chisinau", "Value" : 1.622, "id" : "21" }, { "Latitude" : 54.6896, "Longitude" : 25.2799, "City" : "Vilnius", "Value" : 1.608, "id" : "21" }, { "Latitude" : 55.7558, "Longitude" : 37.6176, "City" : "Moscow", "Value" : 1.281, "id" : "21" }, { "Latitude" : 59.9138, "Longitude" : 10.7387, "City" : "Oslo", "Value" : 2.531, "id" : "21" }, { "Latitude" : 62.0177, "Longitude" : -6.7719, "City" : "Torshavn (on Streymoy)", "Value" : 1.122, "id" : "21" }, { "Latitude" : 40.4167, "Longitude" : -3.7033, "City" : "Madrid", "Value" : 1.157, "id" : "21" }, { "Latitude" : 36.1377, "Longitude" : -5.3453, "City" : "Gibraltar", "Value" : 2.644, "id" : "21" }, { "Latitude" : 35.9042, "Longitude" : 14.5189, "City" : "Valletta", "Value" : 1.765, "id" : "21" }, { "Latitude" : 42.674, "Longitude" : 21.1788, "City" : "Prishtine", "Value" : 1.385, "id" : "22" }, { "Latitude" : 42.0024, "Longitude" : 21.4361, "City" : "Skopje", "Value" : 1.206, "id" : "22" }, { "Latitude" : 44.4479, "Longitude" : 26.0979, "City" : "Bucharest", "Value" : 3.143, "id" : "22" }, { "Latitude" : 47.0167, "Longitude" : 28.8497, "City" : "Chisinau", "Value" : 1.622, "id" : "22" }, { "Latitude" : 54.6896, "Longitude" : 25.2799, "City" : "Vilnius", "Value" : 1.608, "id" : "22" }, { "Latitude" : 47.4984, "Longitude" : 19.0408, "City" : "Budapest", "Value" : 1.709, "id" : "22" }, { "Latitude" : 48.2116, "Longitude" : 17.1547, "City" : "Bratislava", "Value" : 1.313, "id" : "22" }, { "Latitude" : 48.2092, "Longitude" : 16.3728, "City" : "Vienna", "Value" : 1.407, "id" : "22" }, { "Latitude" : 50.0878, "Longitude" : 14.4205, "City" : "Prague", "Value" : 3.332, "id" : "22" }, { "Latitude" : 48.1333, "Longitude" : 11.5666, "City" : "Munich", "Value" : 1.006, "id" : "22" }, { "Latitude" : 47.1411, "Longitude" : 9.5215, "City" : "Vaduz", "Value" : 0.959, "id" : "22" }, { "Latitude" : 46.948, "Longitude" : 7.4481, "City" : "Bern", "Value" : 10.705, "id" : "22" }, { "Latitude" : 49.61, "Longitude" : 6.1296, "City" : "Luxembourg", "Value" : 1.431, "id" : "22" }, { "Latitude" : 43.7325, "Longitude" : 7.4189, "City" : "Monaco", "Value" : 1.719, "id" : "22" }, { "Latitude" : 41.8955, "Longitude" : 12.4823, "City" : "Rome", "Value" : 5.343, "id" : "22" }, { "Latitude" : 35.9042, "Longitude" : 14.5189, "City" : "Valletta", "Value" : 1.765, "id" : "22" }, { "Latitude" : 40.4167, "Longitude" : -3.7033, "City" : "Madrid", "Value" : 1.157, "id" : "22" }, { "Latitude" : 36.1377, "Longitude" : -5.3453, "City" : "Gibraltar", "Value" : 2.644, "id" : "22" }, { "Latitude" : 49.1919, "Longitude" : -2.1071, "City" : "Saint Helier", "Value" : 3.33, "id" : "22" }, { "Latitude" : 49.466, "Longitude" : -2.5522, "City" : "Saint Peter Port", "Value" : 1.451, "id" : "22" }, { "Latitude" : 62.0177, "Longitude" : -6.7719, "City" : "Torshavn (on Streymoy)", "Value" : 1.122, "id" : "22" }, { "Latitude" : 59.9138, "Longitude" : 10.7387, "City" : "Oslo", "Value" : 2.531, "id" : "22" }, { "Latitude" : 55.7558, "Longitude" : 37.6176, "City" : "Moscow", "Value" : 1.281, "id" : "22" }, { "Latitude" : 48.2092, "Longitude" : 16.3728, "City" : "Vienna", "Value" : 1.407, "id" : "23" }, { "Latitude" : 48.2116, "Longitude" : 17.1547, "City" : "Bratislava", "Value" : 1.313, "id" : "23" }, { "Latitude" : 47.4984, "Longitude" : 19.0408, "City" : "Budapest", "Value" : 1.709, "id" : "23" }, { "Latitude" : 42.674, "Longitude" : 21.1788, "City" : "Prishtine", "Value" : 1.385, "id" : "23" }, { "Latitude" : 42.0024, "Longitude" : 21.4361, "City" : "Skopje", "Value" : 1.206, "id" : "23" }, { "Latitude" : 37.9792, "Longitude" : 23.7166, "City" : "Athens", "Value" : 0.823, "id" : "23" }, { "Latitude" : 44.4479, "Longitude" : 26.0979, "City" : "Bucharest", "Value" : 3.143, "id" : "23" }, { "Latitude" : 47.0167, "Longitude" : 28.8497, "City" : "Chisinau", "Value" : 1.622, "id" : "23" }, { "Latitude" : 54.6896, "Longitude" : 25.2799, "City" : "Vilnius", "Value" : 1.608, "id" : "23" }, { "Latitude" : 50.0878, "Longitude" : 14.4205, "City" : "Prague", "Value" : 3.332, "id" : "23" }, { "Latitude" : 48.1333, "Longitude" : 11.5666, "City" : "Munich", "Value" : 1.006, "id" : "23" }, { "Latitude" : 47.1411, "Longitude" : 9.5215, "City" : "Vaduz", "Value" : 0.959, "id" : "23" }, { "Latitude" : 46.948, "Longitude" : 7.4481, "City" : "Bern", "Value" : 10.705, "id" : "23" }, { "Latitude" : 49.61, "Longitude" : 6.1296, "City" : "Luxembourg", "Value" : 1.431, "id" : "23" }, { "Latitude" : 43.7325, "Longitude" : 7.4189, "City" : "Monaco", "Value" : 1.719, "id" : "23" }, { "Latitude" : 41.8955, "Longitude" : 12.4823, "City" : "Rome", "Value" : 5.343, "id" : "23" }, { "Latitude" : 35.9042, "Longitude" : 14.5189, "City" : "Valletta", "Value" : 1.765, "id" : "23" }, { "Latitude" : 40.4167, "Longitude" : -3.7033, "City" : "Madrid", "Value" : 1.157, "id" : "23" }, { "Latitude" : 36.1377, "Longitude" : -5.3453, "City" : "Gibraltar", "Value" : 2.644, "id" : "23" }, { "Latitude" : 49.1919, "Longitude" : -2.1071, "City" : "Saint Helier", "Value" : 3.33, "id" : "23" }, { "Latitude" : 49.466, "Longitude" : -2.5522, "City" : "Saint Peter Port", "Value" : 1.451, "id" : "23" }, { "Latitude" : 62.0177, "Longitude" : -6.7719, "City" : "Torshavn (on Streymoy)", "Value" : 1.122, "id" : "23" }, { "Latitude" : 59.9138, "Longitude" : 10.7387, "City" : "Oslo", "Value" : 2.531, "id" : "23" }, { "Latitude" : 55.7558, "Longitude" : 37.6176, "City" : "Moscow", "Value" : 1.281, "id" : "23" }, { "Latitude" : 47.1411, "Longitude" : 9.5215, "City" : "Vaduz", "Value" : 0.959, "id" : "24" }, { "Latitude" : 46.948, "Longitude" : 7.4481, "City" : "Bern", "Value" : 10.705, "id" : "24" }, { "Latitude" : 49.61, "Longitude" : 6.1296, "City" : "Luxembourg", "Value" : 1.431, "id" : "24" }, { "Latitude" : 48.1333, "Longitude" : 11.5666, "City" : "Munich", "Value" : 1.006, "id" : "24" }, { "Latitude" : 50.0878, "Longitude" : 14.4205, "City" : "Prague", "Value" : 3.332, "id" : "24" }, { "Latitude" : 48.2092, "Longitude" : 16.3728, "City" : "Vienna", "Value" : 1.407, "id" : "24" }, { "Latitude" : 48.2116, "Longitude" : 17.1547, "City" : "Bratislava", "Value" : 1.313, "id" : "24" }, { "Latitude" : 47.4984, "Longitude" : 19.0408, "City" : "Budapest", "Value" : 1.709, "id" : "24" }, { "Latitude" : 42.674, "Longitude" : 21.1788, "City" : "Prishtine", "Value" : 1.385, "id" : "24" }, { "Latitude" : 42.0024, "Longitude" : 21.4361, "City" : "Skopje", "Value" : 1.206, "id" : "24" }, { "Latitude" : 37.9792, "Longitude" : 23.7166, "City" : "Athens", "Value" : 0.823, "id" : "24" }, { "Latitude" : 44.4479, "Longitude" : 26.0979, "City" : "Bucharest", "Value" : 3.143, "id" : "24" }, { "Latitude" : 47.0167, "Longitude" : 28.8497, "City" : "Chisinau", "Value" : 1.622, "id" : "24" }, { "Latitude" : 50.4422, "Longitude" : 30.5367, "City" : "Kiev", "Value" : 0.818, "id" : "24" }, { "Latitude" : 54.6896, "Longitude" : 25.2799, "City" : "Vilnius", "Value" : 1.608, "id" : "24" }, { "Latitude" : 55.7558, "Longitude" : 37.6176, "City" : "Moscow", "Value" : 1.281, "id" : "24" }, { "Latitude" : 59.9138, "Longitude" : 10.7387, "City" : "Oslo", "Value" : 2.531, "id" : "24" }, { "Latitude" : 43.7325, "Longitude" : 7.4189, "City" : "Monaco", "Value" : 1.719, "id" : "24" }, { "Latitude" : 41.8955, "Longitude" : 12.4823, "City" : "Rome", "Value" : 5.343, "id" : "24" }, { "Latitude" : 35.9042, "Longitude" : 14.5189, "City" : "Valletta", "Value" : 1.765, "id" : "24" }, { "Latitude" : 40.4167, "Longitude" : -3.7033, "City" : "Madrid", "Value" : 1.157, "id" : "24" }, { "Latitude" : 36.1377, "Longitude" : -5.3453, "City" : "Gibraltar", "Value" : 2.644, "id" : "24" }, { "Latitude" : 49.1919, "Longitude" : -2.1071, "City" : "Saint Helier", "Value" : 3.33, "id" : "24" }, { "Latitude" : 49.466, "Longitude" : -2.5522, "City" : "Saint Peter Port", "Value" : 1.451, "id" : "24" }, { "Latitude" : 62.0177, "Longitude" : -6.7719, "City" : "Torshavn (on Streymoy)", "Value" : 1.122, "id" : "24" }, { "Latitude" : 55.7558, "Longitude" : 37.6176, "City" : "Moscow", "Value" : 1.281, "id" : "25" }, { "Latitude" : 50.4422, "Longitude" : 30.5367, "City" : "Kiev", "Value" : 0.818, "id" : "25" }, { "Latitude" : 47.0167, "Longitude" : 28.8497, "City" : "Chisinau", "Value" : 1.622, "id" : "25" }, { "Latitude" : 44.4479, "Longitude" : 26.0979, "City" : "Bucharest", "Value" : 3.143, "id" : "25" }, { "Latitude" : 42.674, "Longitude" : 21.1788, "City" : "Prishtine", "Value" : 1.385, "id" : "25" }, { "Latitude" : 42.0024, "Longitude" : 21.4361, "City" : "Skopje", "Value" : 1.206, "id" : "25" }, { "Latitude" : 41.3317, "Longitude" : 19.8172, "City" : "Tirana", "Value" : 0.815, "id" : "25" }, { "Latitude" : 37.9792, "Longitude" : 23.7166, "City" : "Athens", "Value" : 0.823, "id" : "25" }, { "Latitude" : 35.9042, "Longitude" : 14.5189, "City" : "Valletta", "Value" : 1.765, "id" : "25" }, { "Latitude" : 41.8955, "Longitude" : 12.4823, "City" : "Rome", "Value" : 5.343, "id" : "25" }, { "Latitude" : 43.7325, "Longitude" : 7.4189, "City" : "Monaco", "Value" : 1.719, "id" : "25" }, { "Latitude" : 46.948, "Longitude" : 7.4481, "City" : "Bern", "Value" : 10.705, "id" : "25" }, { "Latitude" : 47.1411, "Longitude" : 9.5215, "City" : "Vaduz", "Value" : 0.959, "id" : "25" }, { "Latitude" : 48.1333, "Longitude" : 11.5666, "City" : "Munich", "Value" : 1.006, "id" : "25" }, { "Latitude" : 50.0878, "Longitude" : 14.4205, "City" : "Prague", "Value" : 3.332, "id" : "25" }, { "Latitude" : 48.2092, "Longitude" : 16.3728, "City" : "Vienna", "Value" : 1.407, "id" : "25" }, { "Latitude" : 48.2116, "Longitude" : 17.1547, "City" : "Bratislava", "Value" : 1.313, "id" : "25" }, { "Latitude" : 47.4984, "Longitude" : 19.0408, "City" : "Budapest", "Value" : 1.709, "id" : "25" }, { "Latitude" : 54.6896, "Longitude" : 25.2799, "City" : "Vilnius", "Value" : 1.608, "id" : "25" }, { "Latitude" : 59.9138, "Longitude" : 10.7387, "City" : "Oslo", "Value" : 2.531, "id" : "25" }, { "Latitude" : 49.61, "Longitude" : 6.1296, "City" : "Luxembourg", "Value" : 1.431, "id" : "25" }, { "Latitude" : 49.1919, "Longitude" : -2.1071, "City" : "Saint Helier", "Value" : 3.33, "id" : "25" }, { "Latitude" : 49.466, "Longitude" : -2.5522, "City" : "Saint Peter Port", "Value" : 1.451, "id" : "25" }, { "Latitude" : 40.4167, "Longitude" : -3.7033, "City" : "Madrid", "Value" : 1.157, "id" : "25" }, { "Latitude" : 36.1377, "Longitude" : -5.3453, "City" : "Gibraltar", "Value" : 2.644, "id" : "25" }, { "Latitude" : 62.0177, "Longitude" : -6.7719, "City" : "Torshavn (on Streymoy)", "Value" : 1.122, "id" : "25" }, { "Latitude" : 40.4167, "Longitude" : -3.7033, "City" : "Madrid", "Value" : 1.157, "id" : "26" }, { "Latitude" : 36.1377, "Longitude" : -5.3453, "City" : "Gibraltar", "Value" : 2.644, "id" : "26" }, { "Latitude" : 49.1919, "Longitude" : -2.1071, "City" : "Saint Helier", "Value" : 3.33, "id" : "26" }, { "Latitude" : 49.466, "Longitude" : -2.5522, "City" : "Saint Peter Port", "Value" : 1.451, "id" : "26" }, { "Latitude" : 49.61, "Longitude" : 6.1296, "City" : "Luxembourg", "Value" : 1.431, "id" : "26" }, { "Latitude" : 46.948, "Longitude" : 7.4481, "City" : "Bern", "Value" : 10.705, "id" : "26" }, { "Latitude" : 47.1411, "Longitude" : 9.5215, "City" : "Vaduz", "Value" : 0.959, "id" : "26" }, { "Latitude" : 48.1333, "Longitude" : 11.5666, "City" : "Munich", "Value" : 1.006, "id" : "26" }, { "Latitude" : 50.0878, "Longitude" : 14.4205, "City" : "Prague", "Value" : 3.332, "id" : "26" }, { "Latitude" : 48.2092, "Longitude" : 16.3728, "City" : "Vienna", "Value" : 1.407, "id" : "26" }, { "Latitude" : 48.2116, "Longitude" : 17.1547, "City" : "Bratislava", "Value" : 1.313, "id" : "26" }, { "Latitude" : 47.4984, "Longitude" : 19.0408, "City" : "Budapest", "Value" : 1.709, "id" : "26" }, { "Latitude" : 42.674, "Longitude" : 21.1788, "City" : "Prishtine", "Value" : 1.385, "id" : "26" }, { "Latitude" : 42.0024, "Longitude" : 21.4361, "City" : "Skopje", "Value" : 1.206, "id" : "26" }, { "Latitude" : 41.3317, "Longitude" : 19.8172, "City" : "Tirana", "Value" : 0.815, "id" : "26" }, { "Latitude" : 37.9792, "Longitude" : 23.7166, "City" : "Athens", "Value" : 0.823, "id" : "26" }, { "Latitude" : 44.4479, "Longitude" : 26.0979, "City" : "Bucharest", "Value" : 3.143, "id" : "26" }, { "Latitude" : 47.0167, "Longitude" : 28.8497, "City" : "Chisinau", "Value" : 1.622, "id" : "26" }, { "Latitude" : 50.4422, "Longitude" : 30.5367, "City" : "Kiev", "Value" : 0.818, "id" : "26" }, { "Latitude" : 54.6896, "Longitude" : 25.2799, "City" : "Vilnius", "Value" : 1.608, "id" : "26" }, { "Latitude" : 56.9465, "Longitude" : 24.1049, "City" : "Riga", "Value" : 0.815, "id" : "26" }, { "Latitude" : 55.7558, "Longitude" : 37.6176, "City" : "Moscow", "Value" : 1.281, "id" : "26" }, { "Latitude" : 59.9138, "Longitude" : 10.7387, "City" : "Oslo", "Value" : 2.531, "id" : "26" }, { "Latitude" : 43.7325, "Longitude" : 7.4189, "City" : "Monaco", "Value" : 1.719, "id" : "26" }, { "Latitude" : 41.8955, "Longitude" : 12.4823, "City" : "Rome", "Value" : 5.343, "id" : "26" }, { "Latitude" : 35.9042, "Longitude" : 14.5189, "City" : "Valletta", "Value" : 1.765, "id" : "26" }, { "Latitude" : 62.0177, "Longitude" : -6.7719, "City" : "Torshavn (on Streymoy)", "Value" : 1.122, "id" : "26" }, { "Latitude" : 48.2092, "Longitude" : 16.3728, "City" : "Vienna", "Value" : 1.407, "id" : "27" }, { "Latitude" : 48.2116, "Longitude" : 17.1547, "City" : "Bratislava", "Value" : 1.313, "id" : "27" }, { "Latitude" : 47.4984, "Longitude" : 19.0408, "City" : "Budapest", "Value" : 1.709, "id" : "27" }, { "Latitude" : 42.674, "Longitude" : 21.1788, "City" : "Prishtine", "Value" : 1.385, "id" : "27" }, { "Latitude" : 42.0024, "Longitude" : 21.4361, "City" : "Skopje", "Value" : 1.206, "id" : "27" }, { "Latitude" : 41.3317, "Longitude" : 19.8172, "City" : "Tirana", "Value" : 0.815, "id" : "27" }, { "Latitude" : 37.9792, "Longitude" : 23.7166, "City" : "Athens", "Value" : 0.823, "id" : "27" }, { "Latitude" : 44.4479, "Longitude" : 26.0979, "City" : "Bucharest", "Value" : 3.143, "id" : "27" }, { "Latitude" : 47.0167, "Longitude" : 28.8497, "City" : "Chisinau", "Value" : 1.622, "id" : "27" }, { "Latitude" : 50.4422, "Longitude" : 30.5367, "City" : "Kiev", "Value" : 0.818, "id" : "27" }, { "Latitude" : 54.6896, "Longitude" : 25.2799, "City" : "Vilnius", "Value" : 1.608, "id" : "27" }, { "Latitude" : 56.9465, "Longitude" : 24.1049, "City" : "Riga", "Value" : 0.815, "id" : "27" }, { "Latitude" : 50.0878, "Longitude" : 14.4205, "City" : "Prague", "Value" : 3.332, "id" : "27" }, { "Latitude" : 48.1333, "Longitude" : 11.5666, "City" : "Munich", "Value" : 1.006, "id" : "27" }, { "Latitude" : 47.1411, "Longitude" : 9.5215, "City" : "Vaduz", "Value" : 0.959, "id" : "27" }, { "Latitude" : 46.948, "Longitude" : 7.4481, "City" : "Bern", "Value" : 10.705, "id" : "27" }, { "Latitude" : 49.61, "Longitude" : 6.1296, "City" : "Luxembourg", "Value" : 1.431, "id" : "27" }, { "Latitude" : 43.7325, "Longitude" : 7.4189, "City" : "Monaco", "Value" : 1.719, "id" : "27" }, { "Latitude" : 43.9424, "Longitude" : 12.4578, "City" : "San Marino", "Value" : 0.754, "id" : "27" }, { "Latitude" : 41.8955, "Longitude" : 12.4823, "City" : "Rome", "Value" : 5.343, "id" : "27" }, { "Latitude" : 35.9042, "Longitude" : 14.5189, "City" : "Valletta", "Value" : 1.765, "id" : "27" }, { "Latitude" : 40.4167, "Longitude" : -3.7033, "City" : "Madrid", "Value" : 1.157, "id" : "27" }, { "Latitude" : 36.1377, "Longitude" : -5.3453, "City" : "Gibraltar", "Value" : 2.644, "id" : "27" }, { "Latitude" : 49.1919, "Longitude" : -2.1071, "City" : "Saint Helier", "Value" : 3.33, "id" : "27" }, { "Latitude" : 49.466, "Longitude" : -2.5522, "City" : "Saint Peter Port", "Value" : 1.451, "id" : "27" }, { "Latitude" : 62.0177, "Longitude" : -6.7719, "City" : "Torshavn (on Streymoy)", "Value" : 1.122, "id" : "27" }, { "Latitude" : 59.9138, "Longitude" : 10.7387, "City" : "Oslo", "Value" : 2.531, "id" : "27" }, { "Latitude" : 55.7558, "Longitude" : 37.6176, "City" : "Moscow", "Value" : 1.281, "id" : "27" }, { "Latitude" : 40.4167, "Longitude" : -3.7033, "City" : "Madrid", "Value" : 1.157, "id" : "28" }, { "Latitude" : 36.1377, "Longitude" : -5.3453, "City" : "Gibraltar", "Value" : 2.644, "id" : "28" }, { "Latitude" : 49.1919, "Longitude" : -2.1071, "City" : "Saint Helier", "Value" : 3.33, "id" : "28" }, { "Latitude" : 49.466, "Longitude" : -2.5522, "City" : "Saint Peter Port", "Value" : 1.451, "id" : "28" }, { "Latitude" : 49.61, "Longitude" : 6.1296, "City" : "Luxembourg", "Value" : 1.431, "id" : "28" }, { "Latitude" : 46.948, "Longitude" : 7.4481, "City" : "Bern", "Value" : 10.705, "id" : "28" }, { "Latitude" : 47.1411, "Longitude" : 9.5215, "City" : "Vaduz", "Value" : 0.959, "id" : "28" }, { "Latitude" : 48.1333, "Longitude" : 11.5666, "City" : "Munich", "Value" : 1.006, "id" : "28" }, { "Latitude" : 50.0878, "Longitude" : 14.4205, "City" : "Prague", "Value" : 3.332, "id" : "28" }, { "Latitude" : 48.2092, "Longitude" : 16.3728, "City" : "Vienna", "Value" : 1.407, "id" : "28" }, { "Latitude" : 48.2116, "Longitude" : 17.1547, "City" : "Bratislava", "Value" : 1.313, "id" : "28" }, { "Latitude" : 47.4984, "Longitude" : 19.0408, "City" : "Budapest", "Value" : 1.709, "id" : "28" }, { "Latitude" : 44.8048, "Longitude" : 20.4781, "City" : "Belgrade", "Value" : 0.574, "id" : "28" }, { "Latitude" : 42.674, "Longitude" : 21.1788, "City" : "Prishtine", "Value" : 1.385, "id" : "28" }, { "Latitude" : 42.0024, "Longitude" : 21.4361, "City" : "Skopje", "Value" : 1.206, "id" : "28" }, { "Latitude" : 41.3317, "Longitude" : 19.8172, "City" : "Tirana", "Value" : 0.815, "id" : "28" }, { "Latitude" : 37.9792, "Longitude" : 23.7166, "City" : "Athens", "Value" : 0.823, "id" : "28" }, { "Latitude" : 44.4479, "Longitude" : 26.0979, "City" : "Bucharest", "Value" : 3.143, "id" : "28" }, { "Latitude" : 47.0167, "Longitude" : 28.8497, "City" : "Chisinau", "Value" : 1.622, "id" : "28" }, { "Latitude" : 50.4422, "Longitude" : 30.5367, "City" : "Kiev", "Value" : 0.818, "id" : "28" }, { "Latitude" : 54.6896, "Longitude" : 25.2799, "City" : "Vilnius", "Value" : 1.608, "id" : "28" }, { "Latitude" : 56.9465, "Longitude" : 24.1049, "City" : "Riga", "Value" : 0.815, "id" : "28" }, { "Latitude" : 55.7558, "Longitude" : 37.6176, "City" : "Moscow", "Value" : 1.281, "id" : "28" }, { "Latitude" : 59.9138, "Longitude" : 10.7387, "City" : "Oslo", "Value" : 2.531, "id" : "28" }, { "Latitude" : 43.9424, "Longitude" : 12.4578, "City" : "San Marino", "Value" : 0.754, "id" : "28" }, { "Latitude" : 41.8955, "Longitude" : 12.4823, "City" : "Rome", "Value" : 5.343, "id" : "28" }, { "Latitude" : 43.7325, "Longitude" : 7.4189, "City" : "Monaco", "Value" : 1.719, "id" : "28" }, { "Latitude" : 35.9042, "Longitude" : 14.5189, "City" : "Valletta", "Value" : 1.765, "id" : "28" }, { "Latitude" : 62.0177, "Longitude" : -6.7719, "City" : "Torshavn (on Streymoy)", "Value" : 1.122, "id" : "28" }, { "Latitude" : 50.4422, "Longitude" : 30.5367, "City" : "Kiev", "Value" : 0.818, "id" : "29" }, { "Latitude" : 47.0167, "Longitude" : 28.8497, "City" : "Chisinau", "Value" : 1.622, "id" : "29" }, { "Latitude" : 44.4479, "Longitude" : 26.0979, "City" : "Bucharest", "Value" : 3.143, "id" : "29" }, { "Latitude" : 42.674, "Longitude" : 21.1788, "City" : "Prishtine", "Value" : 1.385, "id" : "29" }, { "Latitude" : 42.0024, "Longitude" : 21.4361, "City" : "Skopje", "Value" : 1.206, "id" : "29" }, { "Latitude" : 41.3317, "Longitude" : 19.8172, "City" : "Tirana", "Value" : 0.815, "id" : "29" }, { "Latitude" : 44.8048, "Longitude" : 20.4781, "City" : "Belgrade", "Value" : 0.574, "id" : "29" }, { "Latitude" : 47.4984, "Longitude" : 19.0408, "City" : "Budapest", "Value" : 1.709, "id" : "29" }, { "Latitude" : 48.2116, "Longitude" : 17.1547, "City" : "Bratislava", "Value" : 1.313, "id" : "29" }, { "Latitude" : 48.2092, "Longitude" : 16.3728, "City" : "Vienna", "Value" : 1.407, "id" : "29" }, { "Latitude" : 50.0878, "Longitude" : 14.4205, "City" : "Prague", "Value" : 3.332, "id" : "29" }, { "Latitude" : 48.1333, "Longitude" : 11.5666, "City" : "Munich", "Value" : 1.006, "id" : "29" }, { "Latitude" : 47.1411, "Longitude" : 9.5215, "City" : "Vaduz", "Value" : 0.959, "id" : "29" }, { "Latitude" : 46.948, "Longitude" : 7.4481, "City" : "Bern", "Value" : 10.705, "id" : "29" }, { "Latitude" : 49.61, "Longitude" : 6.1296, "City" : "Luxembourg", "Value" : 1.431, "id" : "29" }, { "Latitude" : 52.3738, "Longitude" : 4.891, "City" : "Amsterdam", "Value" : 0.539, "id" : "29" }, { "Latitude" : 49.1919, "Longitude" : -2.1071, "City" : "Saint Helier", "Value" : 3.33, "id" : "29" }, { "Latitude" : 49.466, "Longitude" : -2.5522, "City" : "Saint Peter Port", "Value" : 1.451, "id" : "29" }, { "Latitude" : 40.4167, "Longitude" : -3.7033, "City" : "Madrid", "Value" : 1.157, "id" : "29" }, { "Latitude" : 36.1377, "Longitude" : -5.3453, "City" : "Gibraltar", "Value" : 2.644, "id" : "29" }, { "Latitude" : 43.7325, "Longitude" : 7.4189, "City" : "Monaco", "Value" : 1.719, "id" : "29" }, { "Latitude" : 43.9424, "Longitude" : 12.4578, "City" : "San Marino", "Value" : 0.754, "id" : "29" }, { "Latitude" : 41.8955, "Longitude" : 12.4823, "City" : "Rome", "Value" : 5.343, "id" : "29" }, { "Latitude" : 35.9042, "Longitude" : 14.5189, "City" : "Valletta", "Value" : 1.765, "id" : "29" }, { "Latitude" : 37.9792, "Longitude" : 23.7166, "City" : "Athens", "Value" : 0.823, "id" : "29" }, { "Latitude" : 54.6896, "Longitude" : 25.2799, "City" : "Vilnius", "Value" : 1.608, "id" : "29" }, { "Latitude" : 56.9465, "Longitude" : 24.1049, "City" : "Riga", "Value" : 0.815, "id" : "29" }, { "Latitude" : 55.7558, "Longitude" : 37.6176, "City" : "Moscow", "Value" : 1.281, "id" : "29" }, { "Latitude" : 59.9138, "Longitude" : 10.7387, "City" : "Oslo", "Value" : 2.531, "id" : "29" }, { "Latitude" : 62.0177, "Longitude" : -6.7719, "City" : "Torshavn (on Streymoy)", "Value" : 1.122, "id" : "29" }, { "Latitude" : 50.4422, "Longitude" : 30.5367, "City" : "Kiev", "Value" : 0.818, "id" : "30" }, { "Latitude" : 47.0167, "Longitude" : 28.8497, "City" : "Chisinau", "Value" : 1.622, "id" : "30" }, { "Latitude" : 44.4479, "Longitude" : 26.0979, "City" : "Bucharest", "Value" : 3.143, "id" : "30" }, { "Latitude" : 42.674, "Longitude" : 21.1788, "City" : "Prishtine", "Value" : 1.385, "id" : "30" }, { "Latitude" : 42.0024, "Longitude" : 21.4361, "City" : "Skopje", "Value" : 1.206, "id" : "30" }, { "Latitude" : 41.3317, "Longitude" : 19.8172, "City" : "Tirana", "Value" : 0.815, "id" : "30" }, { "Latitude" : 44.8048, "Longitude" : 20.4781, "City" : "Belgrade", "Value" : 0.574, "id" : "30" }, { "Latitude" : 47.4984, "Longitude" : 19.0408, "City" : "Budapest", "Value" : 1.709, "id" : "30" }, { "Latitude" : 48.2116, "Longitude" : 17.1547, "City" : "Bratislava", "Value" : 1.313, "id" : "30" }, { "Latitude" : 48.2092, "Longitude" : 16.3728, "City" : "Vienna", "Value" : 1.407, "id" : "30" }, { "Latitude" : 50.0878, "Longitude" : 14.4205, "City" : "Prague", "Value" : 3.332, "id" : "30" }, { "Latitude" : 48.1333, "Longitude" : 11.5666, "City" : "Munich", "Value" : 1.006, "id" : "30" }, { "Latitude" : 47.1411, "Longitude" : 9.5215, "City" : "Vaduz", "Value" : 0.959, "id" : "30" }, { "Latitude" : 46.948, "Longitude" : 7.4481, "City" : "Bern", "Value" : 10.705, "id" : "30" }, { "Latitude" : 49.61, "Longitude" : 6.1296, "City" : "Luxembourg", "Value" : 1.431, "id" : "30" }, { "Latitude" : 52.3738, "Longitude" : 4.891, "City" : "Amsterdam", "Value" : 0.539, "id" : "30" }, { "Latitude" : 49.1919, "Longitude" : -2.1071, "City" : "Saint Helier", "Value" : 3.33, "id" : "30" }, { "Latitude" : 49.466, "Longitude" : -2.5522, "City" : "Saint Peter Port", "Value" : 1.451, "id" : "30" }, { "Latitude" : 53.3441, "Longitude" : -6.2675, "City" : "Dublin", "Value" : 0.532, "id" : "30" }, { "Latitude" : 62.0177, "Longitude" : -6.7719, "City" : "Torshavn (on Streymoy)", "Value" : 1.122, "id" : "30" }, { "Latitude" : 59.9138, "Longitude" : 10.7387, "City" : "Oslo", "Value" : 2.531, "id" : "30" }, { "Latitude" : 56.9465, "Longitude" : 24.1049, "City" : "Riga", "Value" : 0.815, "id" : "30" }, { "Latitude" : 54.6896, "Longitude" : 25.2799, "City" : "Vilnius", "Value" : 1.608, "id" : "30" }, { "Latitude" : 55.7558, "Longitude" : 37.6176, "City" : "Moscow", "Value" : 1.281, "id" : "30" }, { "Latitude" : 37.9792, "Longitude" : 23.7166, "City" : "Athens", "Value" : 0.823, "id" : "30" }, { "Latitude" : 35.9042, "Longitude" : 14.5189, "City" : "Valletta", "Value" : 1.765, "id" : "30" }, { "Latitude" : 41.8955, "Longitude" : 12.4823, "City" : "Rome", "Value" : 5.343, "id" : "30" }, { "Latitude" : 43.9424, "Longitude" : 12.4578, "City" : "San Marino", "Value" : 0.754, "id" : "30" }, { "Latitude" : 43.7325, "Longitude" : 7.4189, "City" : "Monaco", "Value" : 1.719, "id" : "30" }, { "Latitude" : 40.4167, "Longitude" : -3.7033, "City" : "Madrid", "Value" : 1.157, "id" : "30" }, { "Latitude" : 36.1377, "Longitude" : -5.3453, "City" : "Gibraltar", "Value" : 2.644, "id" : "30" }, { "Latitude" : 46.0514, "Longitude" : 14.506, "City" : "Ljubljana", "Value" : 0.529, "id" : "31" }, { "Latitude" : 48.2092, "Longitude" : 16.3728, "City" : "Vienna", "Value" : 1.407, "id" : "31" }, { "Latitude" : 48.2116, "Longitude" : 17.1547, "City" : "Bratislava", "Value" : 1.313, "id" : "31" }, { "Latitude" : 47.4984, "Longitude" : 19.0408, "City" : "Budapest", "Value" : 1.709, "id" : "31" }, { "Latitude" : 44.8048, "Longitude" : 20.4781, "City" : "Belgrade", "Value" : 0.574, "id" : "31" }, { "Latitude" : 42.674, "Longitude" : 21.1788, "City" : "Prishtine", "Value" : 1.385, "id" : "31" }, { "Latitude" : 42.0024, "Longitude" : 21.4361, "City" : "Skopje", "Value" : 1.206, "id" : "31" }, { "Latitude" : 41.3317, "Longitude" : 19.8172, "City" : "Tirana", "Value" : 0.815, "id" : "31" }, { "Latitude" : 37.9792, "Longitude" : 23.7166, "City" : "Athens", "Value" : 0.823, "id" : "31" }, { "Latitude" : 44.4479, "Longitude" : 26.0979, "City" : "Bucharest", "Value" : 3.143, "id" : "31" }, { "Latitude" : 47.0167, "Longitude" : 28.8497, "City" : "Chisinau", "Value" : 1.622, "id" : "31" }, { "Latitude" : 50.4422, "Longitude" : 30.5367, "City" : "Kiev", "Value" : 0.818, "id" : "31" }, { "Latitude" : 54.6896, "Longitude" : 25.2799, "City" : "Vilnius", "Value" : 1.608, "id" : "31" }, { "Latitude" : 56.9465, "Longitude" : 24.1049, "City" : "Riga", "Value" : 0.815, "id" : "31" }, { "Latitude" : 50.0878, "Longitude" : 14.4205, "City" : "Prague", "Value" : 3.332, "id" : "31" }, { "Latitude" : 48.1333, "Longitude" : 11.5666, "City" : "Munich", "Value" : 1.006, "id" : "31" }, { "Latitude" : 47.1411, "Longitude" : 9.5215, "City" : "Vaduz", "Value" : 0.959, "id" : "31" }, { "Latitude" : 46.948, "Longitude" : 7.4481, "City" : "Bern", "Value" : 10.705, "id" : "31" }, { "Latitude" : 49.61, "Longitude" : 6.1296, "City" : "Luxembourg", "Value" : 1.431, "id" : "31" }, { "Latitude" : 52.3738, "Longitude" : 4.891, "City" : "Amsterdam", "Value" : 0.539, "id" : "31" }, { "Latitude" : 49.1919, "Longitude" : -2.1071, "City" : "Saint Helier", "Value" : 3.33, "id" : "31" }, { "Latitude" : 49.466, "Longitude" : -2.5522, "City" : "Saint Peter Port", "Value" : 1.451, "id" : "31" }, { "Latitude" : 53.3441, "Longitude" : -6.2675, "City" : "Dublin", "Value" : 0.532, "id" : "31" }, { "Latitude" : 62.0177, "Longitude" : -6.7719, "City" : "Torshavn (on Streymoy)", "Value" : 1.122, "id" : "31" }, { "Latitude" : 59.9138, "Longitude" : 10.7387, "City" : "Oslo", "Value" : 2.531, "id" : "31" }, { "Latitude" : 43.9424, "Longitude" : 12.4578, "City" : "San Marino", "Value" : 0.754, "id" : "31" }, { "Latitude" : 41.8955, "Longitude" : 12.4823, "City" : "Rome", "Value" : 5.343, "id" : "31" }, { "Latitude" : 43.7325, "Longitude" : 7.4189, "City" : "Monaco", "Value" : 1.719, "id" : "31" }, { "Latitude" : 35.9042, "Longitude" : 14.5189, "City" : "Valletta", "Value" : 1.765, "id" : "31" }, { "Latitude" : 40.4167, "Longitude" : -3.7033, "City" : "Madrid", "Value" : 1.157, "id" : "31" }, { "Latitude" : 36.1377, "Longitude" : -5.3453, "City" : "Gibraltar", "Value" : 2.644, "id" : "31" }, { "Latitude" : 55.7558, "Longitude" : 37.6176, "City" : "Moscow", "Value" : 1.281, "id" : "31" }, { "Latitude" : 48.2092, "Longitude" : 16.3728, "City" : "Vienna", "Value" : 1.407, "id" : "32" }, { "Latitude" : 48.2116, "Longitude" : 17.1547, "City" : "Bratislava", "Value" : 1.313, "id" : "32" }, { "Latitude" : 47.4984, "Longitude" : 19.0408, "City" : "Budapest", "Value" : 1.709, "id" : "32" }, { "Latitude" : 44.8048, "Longitude" : 20.4781, "City" : "Belgrade", "Value" : 0.574, "id" : "32" }, { "Latitude" : 42.674, "Longitude" : 21.1788, "City" : "Prishtine", "Value" : 1.385, "id" : "32" }, { "Latitude" : 42.0024, "Longitude" : 21.4361, "City" : "Skopje", "Value" : 1.206, "id" : "32" }, { "Latitude" : 41.3317, "Longitude" : 19.8172, "City" : "Tirana", "Value" : 0.815, "id" : "32" }, { "Latitude" : 37.9792, "Longitude" : 23.7166, "City" : "Athens", "Value" : 0.823, "id" : "32" }, { "Latitude" : 44.4479, "Longitude" : 26.0979, "City" : "Bucharest", "Value" : 3.143, "id" : "32" }, { "Latitude" : 47.0167, "Longitude" : 28.8497, "City" : "Chisinau", "Value" : 1.622, "id" : "32" }, { "Latitude" : 50.4422, "Longitude" : 30.5367, "City" : "Kiev", "Value" : 0.818, "id" : "32" }, { "Latitude" : 54.6896, "Longitude" : 25.2799, "City" : "Vilnius", "Value" : 1.608, "id" : "32" }, { "Latitude" : 56.9465, "Longitude" : 24.1049, "City" : "Riga", "Value" : 0.815, "id" : "32" }, { "Latitude" : 50.0878, "Longitude" : 14.4205, "City" : "Prague", "Value" : 3.332, "id" : "32" }, { "Latitude" : 48.1333, "Longitude" : 11.5666, "City" : "Munich", "Value" : 1.006, "id" : "32" }, { "Latitude" : 47.1411, "Longitude" : 9.5215, "City" : "Vaduz", "Value" : 0.959, "id" : "32" }, { "Latitude" : 46.948, "Longitude" : 7.4481, "City" : "Bern", "Value" : 10.705, "id" : "32" }, { "Latitude" : 49.61, "Longitude" : 6.1296, "City" : "Luxembourg", "Value" : 1.431, "id" : "32" }, { "Latitude" : 52.3738, "Longitude" : 4.891, "City" : "Amsterdam", "Value" : 0.539, "id" : "32" }, { "Latitude" : 49.1919, "Longitude" : -2.1071, "City" : "Saint Helier", "Value" : 3.33, "id" : "32" }, { "Latitude" : 49.466, "Longitude" : -2.5522, "City" : "Saint Peter Port", "Value" : 1.451, "id" : "32" }, { "Latitude" : 53.3441, "Longitude" : -6.2675, "City" : "Dublin", "Value" : 0.532, "id" : "32" }, { "Latitude" : 62.0177, "Longitude" : -6.7719, "City" : "Torshavn (on Streymoy)", "Value" : 1.122, "id" : "32" }, { "Latitude" : 59.9138, "Longitude" : 10.7387, "City" : "Oslo", "Value" : 2.531, "id" : "32" }, { "Latitude" : 46.0514, "Longitude" : 14.506, "City" : "Ljubljana", "Value" : 0.529, "id" : "32" }, { "Latitude" : 43.9424, "Longitude" : 12.4578, "City" : "San Marino", "Value" : 0.754, "id" : "32" }, { "Latitude" : 41.8955, "Longitude" : 12.4823, "City" : "Rome", "Value" : 5.343, "id" : "32" }, { "Latitude" : 43.7325, "Longitude" : 7.4189, "City" : "Monaco", "Value" : 1.719, "id" : "32" }, { "Latitude" : 42.5075, "Longitude" : 1.5218, "City" : "Andorra la Vella", "Value" : 0.516, "id" : "32" }, { "Latitude" : 40.4167, "Longitude" : -3.7033, "City" : "Madrid", "Value" : 1.157, "id" : "32" }, { "Latitude" : 36.1377, "Longitude" : -5.3453, "City" : "Gibraltar", "Value" : 2.644, "id" : "32" }, { "Latitude" : 35.9042, "Longitude" : 14.5189, "City" : "Valletta", "Value" : 1.765, "id" : "32" }, { "Latitude" : 55.7558, "Longitude" : 37.6176, "City" : "Moscow", "Value" : 1.281, "id" : "32" }, { "Latitude" : 47.0167, "Longitude" : 28.8497, "City" : "Chisinau", "Value" : 1.622, "id" : "33" }, { "Latitude" : 44.4479, "Longitude" : 26.0979, "City" : "Bucharest", "Value" : 3.143, "id" : "33" }, { "Latitude" : 42.674, "Longitude" : 21.1788, "City" : "Prishtine", "Value" : 1.385, "id" : "33" }, { "Latitude" : 42.0024, "Longitude" : 21.4361, "City" : "Skopje", "Value" : 1.206, "id" : "33" }, { "Latitude" : 41.3317, "Longitude" : 19.8172, "City" : "Tirana", "Value" : 0.815, "id" : "33" }, { "Latitude" : 44.8048, "Longitude" : 20.4781, "City" : "Belgrade", "Value" : 0.574, "id" : "33" }, { "Latitude" : 47.4984, "Longitude" : 19.0408, "City" : "Budapest", "Value" : 1.709, "id" : "33" }, { "Latitude" : 48.2116, "Longitude" : 17.1547, "City" : "Bratislava", "Value" : 1.313, "id" : "33" }, { "Latitude" : 48.2092, "Longitude" : 16.3728, "City" : "Vienna", "Value" : 1.407, "id" : "33" }, { "Latitude" : 50.0878, "Longitude" : 14.4205, "City" : "Prague", "Value" : 3.332, "id" : "33" }, { "Latitude" : 48.1333, "Longitude" : 11.5666, "City" : "Munich", "Value" : 1.006, "id" : "33" }, { "Latitude" : 47.1411, "Longitude" : 9.5215, "City" : "Vaduz", "Value" : 0.959, "id" : "33" }, { "Latitude" : 46.948, "Longitude" : 7.4481, "City" : "Bern", "Value" : 10.705, "id" : "33" }, { "Latitude" : 49.61, "Longitude" : 6.1296, "City" : "Luxembourg", "Value" : 1.431, "id" : "33" }, { "Latitude" : 52.3738, "Longitude" : 4.891, "City" : "Amsterdam", "Value" : 0.539, "id" : "33" }, { "Latitude" : 49.1919, "Longitude" : -2.1071, "City" : "Saint Helier", "Value" : 3.33, "id" : "33" }, { "Latitude" : 49.466, "Longitude" : -2.5522, "City" : "Saint Peter Port", "Value" : 1.451, "id" : "33" }, { "Latitude" : 54.167, "Longitude" : -4.4821, "City" : "Douglas", "Value" : 0.516, "id" : "33" }, { "Latitude" : 53.3441, "Longitude" : -6.2675, "City" : "Dublin", "Value" : 0.532, "id" : "33" }, { "Latitude" : 62.0177, "Longitude" : -6.7719, "City" : "Torshavn (on Streymoy)", "Value" : 1.122, "id" : "33" }, { "Latitude" : 59.9138, "Longitude" : 10.7387, "City" : "Oslo", "Value" : 2.531, "id" : "33" }, { "Latitude" : 56.9465, "Longitude" : 24.1049, "City" : "Riga", "Value" : 0.815, "id" : "33" }, { "Latitude" : 54.6896, "Longitude" : 25.2799, "City" : "Vilnius", "Value" : 1.608, "id" : "33" }, { "Latitude" : 50.4422, "Longitude" : 30.5367, "City" : "Kiev", "Value" : 0.818, "id" : "33" }, { "Latitude" : 55.7558, "Longitude" : 37.6176, "City" : "Moscow", "Value" : 1.281, "id" : "33" }, { "Latitude" : 37.9792, "Longitude" : 23.7166, "City" : "Athens", "Value" : 0.823, "id" : "33" }, { "Latitude" : 35.9042, "Longitude" : 14.5189, "City" : "Valletta", "Value" : 1.765, "id" : "33" }, { "Latitude" : 41.8955, "Longitude" : 12.4823, "City" : "Rome", "Value" : 5.343, "id" : "33" }, { "Latitude" : 43.9424, "Longitude" : 12.4578, "City" : "San Marino", "Value" : 0.754, "id" : "33" }, { "Latitude" : 46.0514, "Longitude" : 14.506, "City" : "Ljubljana", "Value" : 0.529, "id" : "33" }, { "Latitude" : 43.7325, "Longitude" : 7.4189, "City" : "Monaco", "Value" : 1.719, "id" : "33" }, { "Latitude" : 42.5075, "Longitude" : 1.5218, "City" : "Andorra la Vella", "Value" : 0.516, "id" : "33" }, { "Latitude" : 40.4167, "Longitude" : -3.7033, "City" : "Madrid", "Value" : 1.157, "id" : "33" }, { "Latitude" : 36.1377, "Longitude" : -5.3453, "City" : "Gibraltar", "Value" : 2.644, "id" : "33" }, { "Latitude" : 48.2092, "Longitude" : 16.3728, "City" : "Vienna", "Value" : 1.407, "id" : "34" }, { "Latitude" : 48.2116, "Longitude" : 17.1547, "City" : "Bratislava", "Value" : 1.313, "id" : "34" }, { "Latitude" : 47.4984, "Longitude" : 19.0408, "City" : "Budapest", "Value" : 1.709, "id" : "34" }, { "Latitude" : 44.8048, "Longitude" : 20.4781, "City" : "Belgrade", "Value" : 0.574, "id" : "34" }, { "Latitude" : 42.674, "Longitude" : 21.1788, "City" : "Prishtine", "Value" : 1.385, "id" : "34" }, { "Latitude" : 42.0024, "Longitude" : 21.4361, "City" : "Skopje", "Value" : 1.206, "id" : "34" }, { "Latitude" : 41.3317, "Longitude" : 19.8172, "City" : "Tirana", "Value" : 0.815, "id" : "34" }, { "Latitude" : 37.9792, "Longitude" : 23.7166, "City" : "Athens", "Value" : 0.823, "id" : "34" }, { "Latitude" : 44.4479, "Longitude" : 26.0979, "City" : "Bucharest", "Value" : 3.143, "id" : "34" }, { "Latitude" : 47.0167, "Longitude" : 28.8497, "City" : "Chisinau", "Value" : 1.622, "id" : "34" }, { "Latitude" : 50.4422, "Longitude" : 30.5367, "City" : "Kiev", "Value" : 0.818, "id" : "34" }, { "Latitude" : 54.6896, "Longitude" : 25.2799, "City" : "Vilnius", "Value" : 1.608, "id" : "34" }, { "Latitude" : 56.9465, "Longitude" : 24.1049, "City" : "Riga", "Value" : 0.815, "id" : "34" }, { "Latitude" : 52.2297, "Longitude" : 21.0122, "City" : "Warsaw", "Value" : 0.442, "id" : "34" }, { "Latitude" : 50.0878, "Longitude" : 14.4205, "City" : "Prague", "Value" : 3.332, "id" : "34" }, { "Latitude" : 48.1333, "Longitude" : 11.5666, "City" : "Munich", "Value" : 1.006, "id" : "34" }, { "Latitude" : 47.1411, "Longitude" : 9.5215, "City" : "Vaduz", "Value" : 0.959, "id" : "34" }, { "Latitude" : 46.948, "Longitude" : 7.4481, "City" : "Bern", "Value" : 10.705, "id" : "34" }, { "Latitude" : 49.61, "Longitude" : 6.1296, "City" : "Luxembourg", "Value" : 1.431, "id" : "34" }, { "Latitude" : 52.3738, "Longitude" : 4.891, "City" : "Amsterdam", "Value" : 0.539, "id" : "34" }, { "Latitude" : 49.1919, "Longitude" : -2.1071, "City" : "Saint Helier", "Value" : 3.33, "id" : "34" }, { "Latitude" : 49.466, "Longitude" : -2.5522, "City" : "Saint Peter Port", "Value" : 1.451, "id" : "34" }, { "Latitude" : 54.167, "Longitude" : -4.4821, "City" : "Douglas", "Value" : 0.516, "id" : "34" }, { "Latitude" : 53.3441, "Longitude" : -6.2675, "City" : "Dublin", "Value" : 0.532, "id" : "34" }, { "Latitude" : 62.0177, "Longitude" : -6.7719, "City" : "Torshavn (on Streymoy)", "Value" : 1.122, "id" : "34" }, { "Latitude" : 59.9138, "Longitude" : 10.7387, "City" : "Oslo", "Value" : 2.531, "id" : "34" }, { "Latitude" : 46.0514, "Longitude" : 14.506, "City" : "Ljubljana", "Value" : 0.529, "id" : "34" }, { "Latitude" : 43.9424, "Longitude" : 12.4578, "City" : "San Marino", "Value" : 0.754, "id" : "34" }, { "Latitude" : 41.8955, "Longitude" : 12.4823, "City" : "Rome", "Value" : 5.343, "id" : "34" }, { "Latitude" : 43.7325, "Longitude" : 7.4189, "City" : "Monaco", "Value" : 1.719, "id" : "34" }, { "Latitude" : 42.5075, "Longitude" : 1.5218, "City" : "Andorra la Vella", "Value" : 0.516, "id" : "34" }, { "Latitude" : 40.4167, "Longitude" : -3.7033, "City" : "Madrid", "Value" : 1.157, "id" : "34" }, { "Latitude" : 36.1377, "Longitude" : -5.3453, "City" : "Gibraltar", "Value" : 2.644, "id" : "34" }, { "Latitude" : 35.9042, "Longitude" : 14.5189, "City" : "Valletta", "Value" : 1.765, "id" : "34" }, { "Latitude" : 55.7558, "Longitude" : 37.6176, "City" : "Moscow", "Value" : 1.281, "id" : "34" }, { "Latitude" : 46.948, "Longitude" : 7.4481, "City" : "Bern", "Value" : 10.705, "id" : "35" }, { "Latitude" : 47.1411, "Longitude" : 9.5215, "City" : "Vaduz", "Value" : 0.959, "id" : "35" }, { "Latitude" : 48.1333, "Longitude" : 11.5666, "City" : "Munich", "Value" : 1.006, "id" : "35" }, { "Latitude" : 50.0878, "Longitude" : 14.4205, "City" : "Prague", "Value" : 3.332, "id" : "35" }, { "Latitude" : 48.2092, "Longitude" : 16.3728, "City" : "Vienna", "Value" : 1.407, "id" : "35" }, { "Latitude" : 48.2116, "Longitude" : 17.1547, "City" : "Bratislava", "Value" : 1.313, "id" : "35" }, { "Latitude" : 47.4984, "Longitude" : 19.0408, "City" : "Budapest", "Value" : 1.709, "id" : "35" }, { "Latitude" : 44.8048, "Longitude" : 20.4781, "City" : "Belgrade", "Value" : 0.574, "id" : "35" }, { "Latitude" : 42.674, "Longitude" : 21.1788, "City" : "Prishtine", "Value" : 1.385, "id" : "35" }, { "Latitude" : 42.0024, "Longitude" : 21.4361, "City" : "Skopje", "Value" : 1.206, "id" : "35" }, { "Latitude" : 41.3317, "Longitude" : 19.8172, "City" : "Tirana", "Value" : 0.815, "id" : "35" }, { "Latitude" : 37.9792, "Longitude" : 23.7166, "City" : "Athens", "Value" : 0.823, "id" : "35" }, { "Latitude" : 44.4479, "Longitude" : 26.0979, "City" : "Bucharest", "Value" : 3.143, "id" : "35" }, { "Latitude" : 47.0167, "Longitude" : 28.8497, "City" : "Chisinau", "Value" : 1.622, "id" : "35" }, { "Latitude" : 50.4422, "Longitude" : 30.5367, "City" : "Kiev", "Value" : 0.818, "id" : "35" }, { "Latitude" : 54.6896, "Longitude" : 25.2799, "City" : "Vilnius", "Value" : 1.608, "id" : "35" }, { "Latitude" : 56.9465, "Longitude" : 24.1049, "City" : "Riga", "Value" : 0.815, "id" : "35" }, { "Latitude" : 59.4389, "Longitude" : 24.7545, "City" : "Tallinn", "Value" : 0.415, "id" : "35" }, { "Latitude" : 52.2297, "Longitude" : 21.0122, "City" : "Warsaw", "Value" : 0.442, "id" : "35" }, { "Latitude" : 46.0514, "Longitude" : 14.506, "City" : "Ljubljana", "Value" : 0.529, "id" : "35" }, { "Latitude" : 43.9424, "Longitude" : 12.4578, "City" : "San Marino", "Value" : 0.754, "id" : "35" }, { "Latitude" : 41.8955, "Longitude" : 12.4823, "City" : "Rome", "Value" : 5.343, "id" : "35" }, { "Latitude" : 43.7325, "Longitude" : 7.4189, "City" : "Monaco", "Value" : 1.719, "id" : "35" }, { "Latitude" : 49.61, "Longitude" : 6.1296, "City" : "Luxembourg", "Value" : 1.431, "id" : "35" }, { "Latitude" : 52.3738, "Longitude" : 4.891, "City" : "Amsterdam", "Value" : 0.539, "id" : "35" }, { "Latitude" : 49.1919, "Longitude" : -2.1071, "City" : "Saint Helier", "Value" : 3.33, "id" : "35" }, { "Latitude" : 49.466, "Longitude" : -2.5522, "City" : "Saint Peter Port", "Value" : 1.451, "id" : "35" }, { "Latitude" : 54.167, "Longitude" : -4.4821, "City" : "Douglas", "Value" : 0.516, "id" : "35" }, { "Latitude" : 53.3441, "Longitude" : -6.2675, "City" : "Dublin", "Value" : 0.532, "id" : "35" }, { "Latitude" : 62.0177, "Longitude" : -6.7719, "City" : "Torshavn (on Streymoy)", "Value" : 1.122, "id" : "35" }, { "Latitude" : 59.9138, "Longitude" : 10.7387, "City" : "Oslo", "Value" : 2.531, "id" : "35" }, { "Latitude" : 42.5075, "Longitude" : 1.5218, "City" : "Andorra la Vella", "Value" : 0.516, "id" : "35" }, { "Latitude" : 40.4167, "Longitude" : -3.7033, "City" : "Madrid", "Value" : 1.157, "id" : "35" }, { "Latitude" : 36.1377, "Longitude" : -5.3453, "City" : "Gibraltar", "Value" : 2.644, "id" : "35" }, { "Latitude" : 35.9042, "Longitude" : 14.5189, "City" : "Valletta", "Value" : 1.765, "id" : "35" }, { "Latitude" : 55.7558, "Longitude" : 37.6176, "City" : "Moscow", "Value" : 1.281, "id" : "35" }, { "Latitude" : 59.9138, "Longitude" : 10.7387, "City" : "Oslo", "Value" : 2.531, "id" : "36" }, { "Latitude" : 52.3738, "Longitude" : 4.891, "City" : "Amsterdam", "Value" : 0.539, "id" : "36" }, { "Latitude" : 49.61, "Longitude" : 6.1296, "City" : "Luxembourg", "Value" : 1.431, "id" : "36" }, { "Latitude" : 46.948, "Longitude" : 7.4481, "City" : "Bern", "Value" : 10.705, "id" : "36" }, { "Latitude" : 47.1411, "Longitude" : 9.5215, "City" : "Vaduz", "Value" : 0.959, "id" : "36" }, { "Latitude" : 48.1333, "Longitude" : 11.5666, "City" : "Munich", "Value" : 1.006, "id" : "36" }, { "Latitude" : 50.0878, "Longitude" : 14.4205, "City" : "Prague", "Value" : 3.332, "id" : "36" }, { "Latitude" : 48.2092, "Longitude" : 16.3728, "City" : "Vienna", "Value" : 1.407, "id" : "36" }, { "Latitude" : 48.2116, "Longitude" : 17.1547, "City" : "Bratislava", "Value" : 1.313, "id" : "36" }, { "Latitude" : 47.4984, "Longitude" : 19.0408, "City" : "Budapest", "Value" : 1.709, "id" : "36" }, { "Latitude" : 44.8048, "Longitude" : 20.4781, "City" : "Belgrade", "Value" : 0.574, "id" : "36" }, { "Latitude" : 42.674, "Longitude" : 21.1788, "City" : "Prishtine", "Value" : 1.385, "id" : "36" }, { "Latitude" : 42.0024, "Longitude" : 21.4361, "City" : "Skopje", "Value" : 1.206, "id" : "36" }, { "Latitude" : 41.3317, "Longitude" : 19.8172, "City" : "Tirana", "Value" : 0.815, "id" : "36" }, { "Latitude" : 37.9792, "Longitude" : 23.7166, "City" : "Athens", "Value" : 0.823, "id" : "36" }, { "Latitude" : 44.4479, "Longitude" : 26.0979, "City" : "Bucharest", "Value" : 3.143, "id" : "36" }, { "Latitude" : 47.0167, "Longitude" : 28.8497, "City" : "Chisinau", "Value" : 1.622, "id" : "36" }, { "Latitude" : 50.4422, "Longitude" : 30.5367, "City" : "Kiev", "Value" : 0.818, "id" : "36" }, { "Latitude" : 54.6896, "Longitude" : 25.2799, "City" : "Vilnius", "Value" : 1.608, "id" : "36" }, { "Latitude" : 56.9465, "Longitude" : 24.1049, "City" : "Riga", "Value" : 0.815, "id" : "36" }, { "Latitude" : 59.4389, "Longitude" : 24.7545, "City" : "Tallinn", "Value" : 0.415, "id" : "36" }, { "Latitude" : 52.2297, "Longitude" : 21.0122, "City" : "Warsaw", "Value" : 0.442, "id" : "36" }, { "Latitude" : 46.0514, "Longitude" : 14.506, "City" : "Ljubljana", "Value" : 0.529, "id" : "36" }, { "Latitude" : 43.9424, "Longitude" : 12.4578, "City" : "San Marino", "Value" : 0.754, "id" : "36" }, { "Latitude" : 41.8955, "Longitude" : 12.4823, "City" : "Rome", "Value" : 5.343, "id" : "36" }, { "Latitude" : 43.7325, "Longitude" : 7.4189, "City" : "Monaco", "Value" : 1.719, "id" : "36" }, { "Latitude" : 42.5075, "Longitude" : 1.5218, "City" : "Andorra la Vella", "Value" : 0.516, "id" : "36" }, { "Latitude" : 40.4167, "Longitude" : -3.7033, "City" : "Madrid", "Value" : 1.157, "id" : "36" }, { "Latitude" : 36.1377, "Longitude" : -5.3453, "City" : "Gibraltar", "Value" : 2.644, "id" : "36" }, { "Latitude" : 49.1919, "Longitude" : -2.1071, "City" : "Saint Helier", "Value" : 3.33, "id" : "36" }, { "Latitude" : 49.466, "Longitude" : -2.5522, "City" : "Saint Peter Port", "Value" : 1.451, "id" : "36" }, { "Latitude" : 54.167, "Longitude" : -4.4821, "City" : "Douglas", "Value" : 0.516, "id" : "36" }, { "Latitude" : 53.3441, "Longitude" : -6.2675, "City" : "Dublin", "Value" : 0.532, "id" : "36" }, { "Latitude" : 62.0177, "Longitude" : -6.7719, "City" : "Torshavn (on Streymoy)", "Value" : 1.122, "id" : "36" }, { "Latitude" : 64.1353, "Longitude" : -21.8952, "City" : "Reykjavik", "Value" : 0.413, "id" : "36" }, { "Latitude" : 35.9042, "Longitude" : 14.5189, "City" : "Valletta", "Value" : 1.765, "id" : "36" }, { "Latitude" : 55.7558, "Longitude" : 37.6176, "City" : "Moscow", "Value" : 1.281, "id" : "36" }, { "Latitude" : 42.5075, "Longitude" : 1.5218, "City" : "Andorra la Vella", "Value" : 0.516, "id" : "37" }, { "Latitude" : 40.4167, "Longitude" : -3.7033, "City" : "Madrid", "Value" : 1.157, "id" : "37" }, { "Latitude" : 36.1377, "Longitude" : -5.3453, "City" : "Gibraltar", "Value" : 2.644, "id" : "37" }, { "Latitude" : 49.1919, "Longitude" : -2.1071, "City" : "Saint Helier", "Value" : 3.33, "id" : "37" }, { "Latitude" : 49.466, "Longitude" : -2.5522, "City" : "Saint Peter Port", "Value" : 1.451, "id" : "37" }, { "Latitude" : 54.167, "Longitude" : -4.4821, "City" : "Douglas", "Value" : 0.516, "id" : "37" }, { "Latitude" : 53.3441, "Longitude" : -6.2675, "City" : "Dublin", "Value" : 0.532, "id" : "37" }, { "Latitude" : 62.0177, "Longitude" : -6.7719, "City" : "Torshavn (on Streymoy)", "Value" : 1.122, "id" : "37" }, { "Latitude" : 52.3738, "Longitude" : 4.891, "City" : "Amsterdam", "Value" : 0.539, "id" : "37" }, { "Latitude" : 49.61, "Longitude" : 6.1296, "City" : "Luxembourg", "Value" : 1.431, "id" : "37" }, { "Latitude" : 46.948, "Longitude" : 7.4481, "City" : "Bern", "Value" : 10.705, "id" : "37" }, { "Latitude" : 47.1411, "Longitude" : 9.5215, "City" : "Vaduz", "Value" : 0.959, "id" : "37" }, { "Latitude" : 48.1333, "Longitude" : 11.5666, "City" : "Munich", "Value" : 1.006, "id" : "37" }, { "Latitude" : 50.0878, "Longitude" : 14.4205, "City" : "Prague", "Value" : 3.332, "id" : "37" }, { "Latitude" : 48.2092, "Longitude" : 16.3728, "City" : "Vienna", "Value" : 1.407, "id" : "37" }, { "Latitude" : 48.2116, "Longitude" : 17.1547, "City" : "Bratislava", "Value" : 1.313, "id" : "37" }, { "Latitude" : 47.4984, "Longitude" : 19.0408, "City" : "Budapest", "Value" : 1.709, "id" : "37" }, { "Latitude" : 44.8048, "Longitude" : 20.4781, "City" : "Belgrade", "Value" : 0.574, "id" : "37" }, { "Latitude" : 42.674, "Longitude" : 21.1788, "City" : "Prishtine", "Value" : 1.385, "id" : "37" }, { "Latitude" : 42.0024, "Longitude" : 21.4361, "City" : "Skopje", "Value" : 1.206, "id" : "37" }, { "Latitude" : 41.3317, "Longitude" : 19.8172, "City" : "Tirana", "Value" : 0.815, "id" : "37" }, { "Latitude" : 37.9792, "Longitude" : 23.7166, "City" : "Athens", "Value" : 0.823, "id" : "37" }, { "Latitude" : 44.4479, "Longitude" : 26.0979, "City" : "Bucharest", "Value" : 3.143, "id" : "37" }, { "Latitude" : 47.0167, "Longitude" : 28.8497, "City" : "Chisinau", "Value" : 1.622, "id" : "37" }, { "Latitude" : 50.4422, "Longitude" : 30.5367, "City" : "Kiev", "Value" : 0.818, "id" : "37" }, { "Latitude" : 54.6896, "Longitude" : 25.2799, "City" : "Vilnius", "Value" : 1.608, "id" : "37" }, { "Latitude" : 56.9465, "Longitude" : 24.1049, "City" : "Riga", "Value" : 0.815, "id" : "37" }, { "Latitude" : 59.4389, "Longitude" : 24.7545, "City" : "Tallinn", "Value" : 0.415, "id" : "37" }, { "Latitude" : 59.3328, "Longitude" : 18.0645, "City" : "Stockholm", "Value" : 0.353, "id" : "37" }, { "Latitude" : 59.9138, "Longitude" : 10.7387, "City" : "Oslo", "Value" : 2.531, "id" : "37" }, { "Latitude" : 52.2297, "Longitude" : 21.0122, "City" : "Warsaw", "Value" : 0.442, "id" : "37" }, { "Latitude" : 46.0514, "Longitude" : 14.506, "City" : "Ljubljana", "Value" : 0.529, "id" : "37" }, { "Latitude" : 43.9424, "Longitude" : 12.4578, "City" : "San Marino", "Value" : 0.754, "id" : "37" }, { "Latitude" : 41.8955, "Longitude" : 12.4823, "City" : "Rome", "Value" : 5.343, "id" : "37" }, { "Latitude" : 43.7325, "Longitude" : 7.4189, "City" : "Monaco", "Value" : 1.719, "id" : "37" }, { "Latitude" : 35.9042, "Longitude" : 14.5189, "City" : "Valletta", "Value" : 1.765, "id" : "37" }, { "Latitude" : 55.7558, "Longitude" : 37.6176, "City" : "Moscow", "Value" : 1.281, "id" : "37" }, { "Latitude" : 64.1353, "Longitude" : -21.8952, "City" : "Reykjavik", "Value" : 0.413, "id" : "37" }, { "Latitude" : 47.4984, "Longitude" : 19.0408, "City" : "Budapest", "Value" : 1.709, "id" : "38" }, { "Latitude" : 48.2116, "Longitude" : 17.1547, "City" : "Bratislava", "Value" : 1.313, "id" : "38" }, { "Latitude" : 48.2092, "Longitude" : 16.3728, "City" : "Vienna", "Value" : 1.407, "id" : "38" }, { "Latitude" : 50.0878, "Longitude" : 14.4205, "City" : "Prague", "Value" : 3.332, "id" : "38" }, { "Latitude" : 48.1333, "Longitude" : 11.5666, "City" : "Munich", "Value" : 1.006, "id" : "38" }, { "Latitude" : 47.1411, "Longitude" : 9.5215, "City" : "Vaduz", "Value" : 0.959, "id" : "38" }, { "Latitude" : 46.948, "Longitude" : 7.4481, "City" : "Bern", "Value" : 10.705, "id" : "38" }, { "Latitude" : 49.61, "Longitude" : 6.1296, "City" : "Luxembourg", "Value" : 1.431, "id" : "38" }, { "Latitude" : 52.3738, "Longitude" : 4.891, "City" : "Amsterdam", "Value" : 0.539, "id" : "38" }, { "Latitude" : 48.8567, "Longitude" : 2.351, "City" : "Paris", "Value" : 0.31, "id" : "38" }, { "Latitude" : 49.1919, "Longitude" : -2.1071, "City" : "Saint Helier", "Value" : 3.33, "id" : "38" }, { "Latitude" : 49.466, "Longitude" : -2.5522, "City" : "Saint Peter Port", "Value" : 1.451, "id" : "38" }, { "Latitude" : 54.167, "Longitude" : -4.4821, "City" : "Douglas", "Value" : 0.516, "id" : "38" }, { "Latitude" : 53.3441, "Longitude" : -6.2675, "City" : "Dublin", "Value" : 0.532, "id" : "38" }, { "Latitude" : 62.0177, "Longitude" : -6.7719, "City" : "Torshavn (on Streymoy)", "Value" : 1.122, "id" : "38" }, { "Latitude" : 64.1353, "Longitude" : -21.8952, "City" : "Reykjavik", "Value" : 0.413, "id" : "38" }, { "Latitude" : 40.4167, "Longitude" : -3.7033, "City" : "Madrid", "Value" : 1.157, "id" : "38" }, { "Latitude" : 36.1377, "Longitude" : -5.3453, "City" : "Gibraltar", "Value" : 2.644, "id" : "38" }, { "Latitude" : 42.5075, "Longitude" : 1.5218, "City" : "Andorra la Vella", "Value" : 0.516, "id" : "38" }, { "Latitude" : 43.7325, "Longitude" : 7.4189, "City" : "Monaco", "Value" : 1.719, "id" : "38" }, { "Latitude" : 43.9424, "Longitude" : 12.4578, "City" : "San Marino", "Value" : 0.754, "id" : "38" }, { "Latitude" : 41.8955, "Longitude" : 12.4823, "City" : "Rome", "Value" : 5.343, "id" : "38" }, { "Latitude" : 46.0514, "Longitude" : 14.506, "City" : "Ljubljana", "Value" : 0.529, "id" : "38" }, { "Latitude" : 44.8048, "Longitude" : 20.4781, "City" : "Belgrade", "Value" : 0.574, "id" : "38" }, { "Latitude" : 42.674, "Longitude" : 21.1788, "City" : "Prishtine", "Value" : 1.385, "id" : "38" }, { "Latitude" : 42.0024, "Longitude" : 21.4361, "City" : "Skopje", "Value" : 1.206, "id" : "38" }, { "Latitude" : 41.3317, "Longitude" : 19.8172, "City" : "Tirana", "Value" : 0.815, "id" : "38" }, { "Latitude" : 37.9792, "Longitude" : 23.7166, "City" : "Athens", "Value" : 0.823, "id" : "38" }, { "Latitude" : 44.4479, "Longitude" : 26.0979, "City" : "Bucharest", "Value" : 3.143, "id" : "38" }, { "Latitude" : 47.0167, "Longitude" : 28.8497, "City" : "Chisinau", "Value" : 1.622, "id" : "38" }, { "Latitude" : 50.4422, "Longitude" : 30.5367, "City" : "Kiev", "Value" : 0.818, "id" : "38" }, { "Latitude" : 54.6896, "Longitude" : 25.2799, "City" : "Vilnius", "Value" : 1.608, "id" : "38" }, { "Latitude" : 56.9465, "Longitude" : 24.1049, "City" : "Riga", "Value" : 0.815, "id" : "38" }, { "Latitude" : 59.4389, "Longitude" : 24.7545, "City" : "Tallinn", "Value" : 0.415, "id" : "38" }, { "Latitude" : 59.3328, "Longitude" : 18.0645, "City" : "Stockholm", "Value" : 0.353, "id" : "38" }, { "Latitude" : 59.9138, "Longitude" : 10.7387, "City" : "Oslo", "Value" : 2.531, "id" : "38" }, { "Latitude" : 52.2297, "Longitude" : 21.0122, "City" : "Warsaw", "Value" : 0.442, "id" : "38" }, { "Latitude" : 55.7558, "Longitude" : 37.6176, "City" : "Moscow", "Value" : 1.281, "id" : "38" }, { "Latitude" : 35.9042, "Longitude" : 14.5189, "City" : "Valletta", "Value" : 1.765, "id" : "38" }, { "Latitude" : 47.4984, "Longitude" : 19.0408, "City" : "Budapest", "Value" : 1.709, "id" : "39" }, { "Latitude" : 48.2116, "Longitude" : 17.1547, "City" : "Bratislava", "Value" : 1.313, "id" : "39" }, { "Latitude" : 48.2092, "Longitude" : 16.3728, "City" : "Vienna", "Value" : 1.407, "id" : "39" }, { "Latitude" : 50.0878, "Longitude" : 14.4205, "City" : "Prague", "Value" : 3.332, "id" : "39" }, { "Latitude" : 48.1333, "Longitude" : 11.5666, "City" : "Munich", "Value" : 1.006, "id" : "39" }, { "Latitude" : 47.1411, "Longitude" : 9.5215, "City" : "Vaduz", "Value" : 0.959, "id" : "39" }, { "Latitude" : 46.948, "Longitude" : 7.4481, "City" : "Bern", "Value" : 10.705, "id" : "39" }, { "Latitude" : 49.61, "Longitude" : 6.1296, "City" : "Luxembourg", "Value" : 1.431, "id" : "39" }, { "Latitude" : 52.3738, "Longitude" : 4.891, "City" : "Amsterdam", "Value" : 0.539, "id" : "39" }, { "Latitude" : 48.8567, "Longitude" : 2.351, "City" : "Paris", "Value" : 0.31, "id" : "39" }, { "Latitude" : 49.1919, "Longitude" : -2.1071, "City" : "Saint Helier", "Value" : 3.33, "id" : "39" }, { "Latitude" : 49.466, "Longitude" : -2.5522, "City" : "Saint Peter Port", "Value" : 1.451, "id" : "39" }, { "Latitude" : 54.167, "Longitude" : -4.4821, "City" : "Douglas", "Value" : 0.516, "id" : "39" }, { "Latitude" : 53.3441, "Longitude" : -6.2675, "City" : "Dublin", "Value" : 0.532, "id" : "39" }, { "Latitude" : 62.0177, "Longitude" : -6.7719, "City" : "Torshavn (on Streymoy)", "Value" : 1.122, "id" : "39" }, { "Latitude" : 64.1353, "Longitude" : -21.8952, "City" : "Reykjavik", "Value" : 0.413, "id" : "39" }, { "Latitude" : 40.4167, "Longitude" : -3.7033, "City" : "Madrid", "Value" : 1.157, "id" : "39" }, { "Latitude" : 36.1377, "Longitude" : -5.3453, "City" : "Gibraltar", "Value" : 2.644, "id" : "39" }, { "Latitude" : 42.5075, "Longitude" : 1.5218, "City" : "Andorra la Vella", "Value" : 0.516, "id" : "39" }, { "Latitude" : 43.7325, "Longitude" : 7.4189, "City" : "Monaco", "Value" : 1.719, "id" : "39" }, { "Latitude" : 43.9424, "Longitude" : 12.4578, "City" : "San Marino", "Value" : 0.754, "id" : "39" }, { "Latitude" : 41.8955, "Longitude" : 12.4823, "City" : "Rome", "Value" : 5.343, "id" : "39" }, { "Latitude" : 46.0514, "Longitude" : 14.506, "City" : "Ljubljana", "Value" : 0.529, "id" : "39" }, { "Latitude" : 43.8608, "Longitude" : 18.4214, "City" : "Sarajevo", "Value" : 0.251, "id" : "39" }, { "Latitude" : 44.8048, "Longitude" : 20.4781, "City" : "Belgrade", "Value" : 0.574, "id" : "39" }, { "Latitude" : 42.674, "Longitude" : 21.1788, "City" : "Prishtine", "Value" : 1.385, "id" : "39" }, { "Latitude" : 42.0024, "Longitude" : 21.4361, "City" : "Skopje", "Value" : 1.206, "id" : "39" }, { "Latitude" : 41.3317, "Longitude" : 19.8172, "City" : "Tirana", "Value" : 0.815, "id" : "39" }, { "Latitude" : 37.9792, "Longitude" : 23.7166, "City" : "Athens", "Value" : 0.823, "id" : "39" }, { "Latitude" : 44.4479, "Longitude" : 26.0979, "City" : "Bucharest", "Value" : 3.143, "id" : "39" }, { "Latitude" : 47.0167, "Longitude" : 28.8497, "City" : "Chisinau", "Value" : 1.622, "id" : "39" }, { "Latitude" : 50.4422, "Longitude" : 30.5367, "City" : "Kiev", "Value" : 0.818, "id" : "39" }, { "Latitude" : 54.6896, "Longitude" : 25.2799, "City" : "Vilnius", "Value" : 1.608, "id" : "39" }, { "Latitude" : 56.9465, "Longitude" : 24.1049, "City" : "Riga", "Value" : 0.815, "id" : "39" }, { "Latitude" : 59.4389, "Longitude" : 24.7545, "City" : "Tallinn", "Value" : 0.415, "id" : "39" }, { "Latitude" : 59.3328, "Longitude" : 18.0645, "City" : "Stockholm", "Value" : 0.353, "id" : "39" }, { "Latitude" : 59.9138, "Longitude" : 10.7387, "City" : "Oslo", "Value" : 2.531, "id" : "39" }, { "Latitude" : 52.2297, "Longitude" : 21.0122, "City" : "Warsaw", "Value" : 0.442, "id" : "39" }, { "Latitude" : 55.7558, "Longitude" : 37.6176, "City" : "Moscow", "Value" : 1.281, "id" : "39" }, { "Latitude" : 35.9042, "Longitude" : 14.5189, "City" : "Valletta", "Value" : 1.765, "id" : "39" }, { "Latitude" : 49.1919, "Longitude" : -2.1071, "City" : "Saint Helier", "Value" : 3.33, "id" : "40" }, { "Latitude" : 49.466, "Longitude" : -2.5522, "City" : "Saint Peter Port", "Value" : 1.451, "id" : "40" }, { "Latitude" : 48.8567, "Longitude" : 2.351, "City" : "Paris", "Value" : 0.31, "id" : "40" }, { "Latitude" : 49.61, "Longitude" : 6.1296, "City" : "Luxembourg", "Value" : 1.431, "id" : "40" }, { "Latitude" : 46.948, "Longitude" : 7.4481, "City" : "Bern", "Value" : 10.705, "id" : "40" }, { "Latitude" : 47.1411, "Longitude" : 9.5215, "City" : "Vaduz", "Value" : 0.959, "id" : "40" }, { "Latitude" : 48.1333, "Longitude" : 11.5666, "City" : "Munich", "Value" : 1.006, "id" : "40" }, { "Latitude" : 50.0878, "Longitude" : 14.4205, "City" : "Prague", "Value" : 3.332, "id" : "40" }, { "Latitude" : 48.2092, "Longitude" : 16.3728, "City" : "Vienna", "Value" : 1.407, "id" : "40" }, { "Latitude" : 48.2116, "Longitude" : 17.1547, "City" : "Bratislava", "Value" : 1.313, "id" : "40" }, { "Latitude" : 47.4984, "Longitude" : 19.0408, "City" : "Budapest", "Value" : 1.709, "id" : "40" }, { "Latitude" : 44.8048, "Longitude" : 20.4781, "City" : "Belgrade", "Value" : 0.574, "id" : "40" }, { "Latitude" : 42.674, "Longitude" : 21.1788, "City" : "Prishtine", "Value" : 1.385, "id" : "40" }, { "Latitude" : 42.0024, "Longitude" : 21.4361, "City" : "Skopje", "Value" : 1.206, "id" : "40" }, { "Latitude" : 41.3317, "Longitude" : 19.8172, "City" : "Tirana", "Value" : 0.815, "id" : "40" }, { "Latitude" : 43.8608, "Longitude" : 18.4214, "City" : "Sarajevo", "Value" : 0.251, "id" : "40" }, { "Latitude" : 46.0514, "Longitude" : 14.506, "City" : "Ljubljana", "Value" : 0.529, "id" : "40" }, { "Latitude" : 43.9424, "Longitude" : 12.4578, "City" : "San Marino", "Value" : 0.754, "id" : "40" }, { "Latitude" : 41.8955, "Longitude" : 12.4823, "City" : "Rome", "Value" : 5.343, "id" : "40" }, { "Latitude" : 43.7325, "Longitude" : 7.4189, "City" : "Monaco", "Value" : 1.719, "id" : "40" }, { "Latitude" : 42.5075, "Longitude" : 1.5218, "City" : "Andorra la Vella", "Value" : 0.516, "id" : "40" }, { "Latitude" : 40.4167, "Longitude" : -3.7033, "City" : "Madrid", "Value" : 1.157, "id" : "40" }, { "Latitude" : 36.1377, "Longitude" : -5.3453, "City" : "Gibraltar", "Value" : 2.644, "id" : "40" }, { "Latitude" : 53.3441, "Longitude" : -6.2675, "City" : "Dublin", "Value" : 0.532, "id" : "40" }, { "Latitude" : 54.167, "Longitude" : -4.4821, "City" : "Douglas", "Value" : 0.516, "id" : "40" }, { "Latitude" : 62.0177, "Longitude" : -6.7719, "City" : "Torshavn (on Streymoy)", "Value" : 1.122, "id" : "40" }, { "Latitude" : 52.3738, "Longitude" : 4.891, "City" : "Amsterdam", "Value" : 0.539, "id" : "40" }, { "Latitude" : 59.9138, "Longitude" : 10.7387, "City" : "Oslo", "Value" : 2.531, "id" : "40" }, { "Latitude" : 59.3328, "Longitude" : 18.0645, "City" : "Stockholm", "Value" : 0.353, "id" : "40" }, { "Latitude" : 56.9465, "Longitude" : 24.1049, "City" : "Riga", "Value" : 0.815, "id" : "40" }, { "Latitude" : 54.6896, "Longitude" : 25.2799, "City" : "Vilnius", "Value" : 1.608, "id" : "40" }, { "Latitude" : 59.4389, "Longitude" : 24.7545, "City" : "Tallinn", "Value" : 0.415, "id" : "40" }, { "Latitude" : 52.2297, "Longitude" : 21.0122, "City" : "Warsaw", "Value" : 0.442, "id" : "40" }, { "Latitude" : 44.4479, "Longitude" : 26.0979, "City" : "Bucharest", "Value" : 3.143, "id" : "40" }, { "Latitude" : 42.7105, "Longitude" : 23.3238, "City" : "Sofia", "Value" : 0.249, "id" : "40" }, { "Latitude" : 37.9792, "Longitude" : 23.7166, "City" : "Athens", "Value" : 0.823, "id" : "40" }, { "Latitude" : 35.9042, "Longitude" : 14.5189, "City" : "Valletta", "Value" : 1.765, "id" : "40" }, { "Latitude" : 47.0167, "Longitude" : 28.8497, "City" : "Chisinau", "Value" : 1.622, "id" : "40" }, { "Latitude" : 50.4422, "Longitude" : 30.5367, "City" : "Kiev", "Value" : 0.818, "id" : "40" }, { "Latitude" : 55.7558, "Longitude" : 37.6176, "City" : "Moscow", "Value" : 1.281, "id" : "40" }, { "Latitude" : 64.1353, "Longitude" : -21.8952, "City" : "Reykjavik", "Value" : 0.413, "id" : "40" }, { "Latitude" : 47.0167, "Longitude" : 28.8497, "City" : "Chisinau", "Value" : 1.622, "id" : "41" }, { "Latitude" : 44.4479, "Longitude" : 26.0979, "City" : "Bucharest", "Value" : 3.143, "id" : "41" }, { "Latitude" : 42.7105, "Longitude" : 23.3238, "City" : "Sofia", "Value" : 0.249, "id" : "41" }, { "Latitude" : 42.0024, "Longitude" : 21.4361, "City" : "Skopje", "Value" : 1.206, "id" : "41" }, { "Latitude" : 42.674, "Longitude" : 21.1788, "City" : "Prishtine", "Value" : 1.385, "id" : "41" }, { "Latitude" : 41.3317, "Longitude" : 19.8172, "City" : "Tirana", "Value" : 0.815, "id" : "41" }, { "Latitude" : 43.8608, "Longitude" : 18.4214, "City" : "Sarajevo", "Value" : 0.251, "id" : "41" }, { "Latitude" : 44.8048, "Longitude" : 20.4781, "City" : "Belgrade", "Value" : 0.574, "id" : "41" }, { "Latitude" : 47.4984, "Longitude" : 19.0408, "City" : "Budapest", "Value" : 1.709, "id" : "41" }, { "Latitude" : 48.2116, "Longitude" : 17.1547, "City" : "Bratislava", "Value" : 1.313, "id" : "41" }, { "Latitude" : 48.2092, "Longitude" : 16.3728, "City" : "Vienna", "Value" : 1.407, "id" : "41" }, { "Latitude" : 50.0878, "Longitude" : 14.4205, "City" : "Prague", "Value" : 3.332, "id" : "41" }, { "Latitude" : 48.1333, "Longitude" : 11.5666, "City" : "Munich", "Value" : 1.006, "id" : "41" }, { "Latitude" : 47.1411, "Longitude" : 9.5215, "City" : "Vaduz", "Value" : 0.959, "id" : "41" }, { "Latitude" : 46.948, "Longitude" : 7.4481, "City" : "Bern", "Value" : 10.705, "id" : "41" }, { "Latitude" : 49.61, "Longitude" : 6.1296, "City" : "Luxembourg", "Value" : 1.431, "id" : "41" }, { "Latitude" : 52.3738, "Longitude" : 4.891, "City" : "Amsterdam", "Value" : 0.539, "id" : "41" }, { "Latitude" : 48.8567, "Longitude" : 2.351, "City" : "Paris", "Value" : 0.31, "id" : "41" }, { "Latitude" : 49.1919, "Longitude" : -2.1071, "City" : "Saint Helier", "Value" : 3.33, "id" : "41" }, { "Latitude" : 49.466, "Longitude" : -2.5522, "City" : "Saint Peter Port", "Value" : 1.451, "id" : "41" }, { "Latitude" : 54.167, "Longitude" : -4.4821, "City" : "Douglas", "Value" : 0.516, "id" : "41" }, { "Latitude" : 53.3441, "Longitude" : -6.2675, "City" : "Dublin", "Value" : 0.532, "id" : "41" }, { "Latitude" : 62.0177, "Longitude" : -6.7719, "City" : "Torshavn (on Streymoy)", "Value" : 1.122, "id" : "41" }, { "Latitude" : 64.1353, "Longitude" : -21.8952, "City" : "Reykjavik", "Value" : 0.413, "id" : "41" }, { "Latitude" : 40.4167, "Longitude" : -3.7033, "City" : "Madrid", "Value" : 1.157, "id" : "41" }, { "Latitude" : 36.1377, "Longitude" : -5.3453, "City" : "Gibraltar", "Value" : 2.644, "id" : "41" }, { "Latitude" : 42.5075, "Longitude" : 1.5218, "City" : "Andorra la Vella", "Value" : 0.516, "id" : "41" }, { "Latitude" : 43.7325, "Longitude" : 7.4189, "City" : "Monaco", "Value" : 1.719, "id" : "41" }, { "Latitude" : 43.9424, "Longitude" : 12.4578, "City" : "San Marino", "Value" : 0.754, "id" : "41" }, { "Latitude" : 41.8955, "Longitude" : 12.4823, "City" : "Rome", "Value" : 5.343, "id" : "41" }, { "Latitude" : 46.0514, "Longitude" : 14.506, "City" : "Ljubljana", "Value" : 0.529, "id" : "41" }, { "Latitude" : 52.2297, "Longitude" : 21.0122, "City" : "Warsaw", "Value" : 0.442, "id" : "41" }, { "Latitude" : 54.6896, "Longitude" : 25.2799, "City" : "Vilnius", "Value" : 1.608, "id" : "41" }, { "Latitude" : 56.9465, "Longitude" : 24.1049, "City" : "Riga", "Value" : 0.815, "id" : "41" }, { "Latitude" : 59.4389, "Longitude" : 24.7545, "City" : "Tallinn", "Value" : 0.415, "id" : "41" }, { "Latitude" : 60.1699, "Longitude" : 24.9384, "City" : "Helsinki", "Value" : 0.218, "id" : "41" }, { "Latitude" : 59.3328, "Longitude" : 18.0645, "City" : "Stockholm", "Value" : 0.353, "id" : "41" }, { "Latitude" : 59.9138, "Longitude" : 10.7387, "City" : "Oslo", "Value" : 2.531, "id" : "41" }, { "Latitude" : 50.4422, "Longitude" : 30.5367, "City" : "Kiev", "Value" : 0.818, "id" : "41" }, { "Latitude" : 55.7558, "Longitude" : 37.6176, "City" : "Moscow", "Value" : 1.281, "id" : "41" }, { "Latitude" : 37.9792, "Longitude" : 23.7166, "City" : "Athens", "Value" : 0.823, "id" : "41" }, { "Latitude" : 35.9042, "Longitude" : 14.5189, "City" : "Valletta", "Value" : 1.765, "id" : "41" }, { "Latitude" : 46.0514, "Longitude" : 14.506, "City" : "Ljubljana", "Value" : 0.529, "id" : "42" }, { "Latitude" : 48.2092, "Longitude" : 16.3728, "City" : "Vienna", "Value" : 1.407, "id" : "42" }, { "Latitude" : 48.2116, "Longitude" : 17.1547, "City" : "Bratislava", "Value" : 1.313, "id" : "42" }, { "Latitude" : 47.4984, "Longitude" : 19.0408, "City" : "Budapest", "Value" : 1.709, "id" : "42" }, { "Latitude" : 44.8048, "Longitude" : 20.4781, "City" : "Belgrade", "Value" : 0.574, "id" : "42" }, { "Latitude" : 42.674, "Longitude" : 21.1788, "City" : "Prishtine", "Value" : 1.385, "id" : "42" }, { "Latitude" : 42.0024, "Longitude" : 21.4361, "City" : "Skopje", "Value" : 1.206, "id" : "42" }, { "Latitude" : 41.3317, "Longitude" : 19.8172, "City" : "Tirana", "Value" : 0.815, "id" : "42" }, { "Latitude" : 43.8608, "Longitude" : 18.4214, "City" : "Sarajevo", "Value" : 0.251, "id" : "42" }, { "Latitude" : 42.7105, "Longitude" : 23.3238, "City" : "Sofia", "Value" : 0.249, "id" : "42" }, { "Latitude" : 44.4479, "Longitude" : 26.0979, "City" : "Bucharest", "Value" : 3.143, "id" : "42" }, { "Latitude" : 47.0167, "Longitude" : 28.8497, "City" : "Chisinau", "Value" : 1.622, "id" : "42" }, { "Latitude" : 50.4422, "Longitude" : 30.5367, "City" : "Kiev", "Value" : 0.818, "id" : "42" }, { "Latitude" : 54.6896, "Longitude" : 25.2799, "City" : "Vilnius", "Value" : 1.608, "id" : "42" }, { "Latitude" : 56.9465, "Longitude" : 24.1049, "City" : "Riga", "Value" : 0.815, "id" : "42" }, { "Latitude" : 59.4389, "Longitude" : 24.7545, "City" : "Tallinn", "Value" : 0.415, "id" : "42" }, { "Latitude" : 60.1699, "Longitude" : 24.9384, "City" : "Helsinki", "Value" : 0.218, "id" : "42" }, { "Latitude" : 59.3328, "Longitude" : 18.0645, "City" : "Stockholm", "Value" : 0.353, "id" : "42" }, { "Latitude" : 59.9138, "Longitude" : 10.7387, "City" : "Oslo", "Value" : 2.531, "id" : "42" }, { "Latitude" : 52.3738, "Longitude" : 4.891, "City" : "Amsterdam", "Value" : 0.539, "id" : "42" }, { "Latitude" : 49.61, "Longitude" : 6.1296, "City" : "Luxembourg", "Value" : 1.431, "id" : "42" }, { "Latitude" : 46.948, "Longitude" : 7.4481, "City" : "Bern", "Value" : 10.705, "id" : "42" }, { "Latitude" : 47.1411, "Longitude" : 9.5215, "City" : "Vaduz", "Value" : 0.959, "id" : "42" }, { "Latitude" : 48.1333, "Longitude" : 11.5666, "City" : "Munich", "Value" : 1.006, "id" : "42" }, { "Latitude" : 50.0878, "Longitude" : 14.4205, "City" : "Prague", "Value" : 3.332, "id" : "42" }, { "Latitude" : 43.9424, "Longitude" : 12.4578, "City" : "San Marino", "Value" : 0.754, "id" : "42" }, { "Latitude" : 41.8955, "Longitude" : 12.4823, "City" : "Rome", "Value" : 5.343, "id" : "42" }, { "Latitude" : 43.7325, "Longitude" : 7.4189, "City" : "Monaco", "Value" : 1.719, "id" : "42" }, { "Latitude" : 42.5075, "Longitude" : 1.5218, "City" : "Andorra la Vella", "Value" : 0.516, "id" : "42" }, { "Latitude" : 40.4167, "Longitude" : -3.7033, "City" : "Madrid", "Value" : 1.157, "id" : "42" }, { "Latitude" : 36.1377, "Longitude" : -5.3453, "City" : "Gibraltar", "Value" : 2.644, "id" : "42" }, { "Latitude" : 38.7072, "Longitude" : -9.1355, "City" : "Lisbon", "Value" : 0.198, "id" : "42" }, { "Latitude" : 49.466, "Longitude" : -2.5522, "City" : "Saint Peter Port", "Value" : 1.451, "id" : "42" }, { "Latitude" : 49.1919, "Longitude" : -2.1071, "City" : "Saint Helier", "Value" : 3.33, "id" : "42" }, { "Latitude" : 48.8567, "Longitude" : 2.351, "City" : "Paris", "Value" : 0.31, "id" : "42" }, { "Latitude" : 54.167, "Longitude" : -4.4821, "City" : "Douglas", "Value" : 0.516, "id" : "42" }, { "Latitude" : 53.3441, "Longitude" : -6.2675, "City" : "Dublin", "Value" : 0.532, "id" : "42" }, { "Latitude" : 62.0177, "Longitude" : -6.7719, "City" : "Torshavn (on Streymoy)", "Value" : 1.122, "id" : "42" }, { "Latitude" : 64.1353, "Longitude" : -21.8952, "City" : "Reykjavik", "Value" : 0.413, "id" : "42" }, { "Latitude" : 52.2297, "Longitude" : 21.0122, "City" : "Warsaw", "Value" : 0.442, "id" : "42" }, { "Latitude" : 37.9792, "Longitude" : 23.7166, "City" : "Athens", "Value" : 0.823, "id" : "42" }, { "Latitude" : 35.9042, "Longitude" : 14.5189, "City" : "Valletta", "Value" : 1.765, "id" : "42" }, { "Latitude" : 55.7558, "Longitude" : 37.6176, "City" : "Moscow", "Value" : 1.281, "id" : "42" }, { "Latitude" : 59.3328, "Longitude" : 18.0645, "City" : "Stockholm", "Value" : 0.353, "id" : "43" }, { "Latitude" : 56.9465, "Longitude" : 24.1049, "City" : "Riga", "Value" : 0.815, "id" : "43" }, { "Latitude" : 54.6896, "Longitude" : 25.2799, "City" : "Vilnius", "Value" : 1.608, "id" : "43" }, { "Latitude" : 59.4389, "Longitude" : 24.7545, "City" : "Tallinn", "Value" : 0.415, "id" : "43" }, { "Latitude" : 60.1699, "Longitude" : 24.9384, "City" : "Helsinki", "Value" : 0.218, "id" : "43" }, { "Latitude" : 52.2297, "Longitude" : 21.0122, "City" : "Warsaw", "Value" : 0.442, "id" : "43" }, { "Latitude" : 47.4984, "Longitude" : 19.0408, "City" : "Budapest", "Value" : 1.709, "id" : "43" }, { "Latitude" : 48.2116, "Longitude" : 17.1547, "City" : "Bratislava", "Value" : 1.313, "id" : "43" }, { "Latitude" : 48.2092, "Longitude" : 16.3728, "City" : "Vienna", "Value" : 1.407, "id" : "43" }, { "Latitude" : 50.0878, "Longitude" : 14.4205, "City" : "Prague", "Value" : 3.332, "id" : "43" }, { "Latitude" : 48.1333, "Longitude" : 11.5666, "City" : "Munich", "Value" : 1.006, "id" : "43" }, { "Latitude" : 47.1411, "Longitude" : 9.5215, "City" : "Vaduz", "Value" : 0.959, "id" : "43" }, { "Latitude" : 46.948, "Longitude" : 7.4481, "City" : "Bern", "Value" : 10.705, "id" : "43" }, { "Latitude" : 49.61, "Longitude" : 6.1296, "City" : "Luxembourg", "Value" : 1.431, "id" : "43" }, { "Latitude" : 52.3738, "Longitude" : 4.891, "City" : "Amsterdam", "Value" : 0.539, "id" : "43" }, { "Latitude" : 48.8567, "Longitude" : 2.351, "City" : "Paris", "Value" : 0.31, "id" : "43" }, { "Latitude" : 51.5002, "Longitude" : -0.1262, "City" : "London", "Value" : 0.167, "id" : "43" }, { "Latitude" : 49.1919, "Longitude" : -2.1071, "City" : "Saint Helier", "Value" : 3.33, "id" : "43" }, { "Latitude" : 49.466, "Longitude" : -2.5522, "City" : "Saint Peter Port", "Value" : 1.451, "id" : "43" }, { "Latitude" : 54.167, "Longitude" : -4.4821, "City" : "Douglas", "Value" : 0.516, "id" : "43" }, { "Latitude" : 53.3441, "Longitude" : -6.2675, "City" : "Dublin", "Value" : 0.532, "id" : "43" }, { "Latitude" : 62.0177, "Longitude" : -6.7719, "City" : "Torshavn (on Streymoy)", "Value" : 1.122, "id" : "43" }, { "Latitude" : 64.1353, "Longitude" : -21.8952, "City" : "Reykjavik", "Value" : 0.413, "id" : "43" }, { "Latitude" : 38.7072, "Longitude" : -9.1355, "City" : "Lisbon", "Value" : 0.198, "id" : "43" }, { "Latitude" : 36.1377, "Longitude" : -5.3453, "City" : "Gibraltar", "Value" : 2.644, "id" : "43" }, { "Latitude" : 40.4167, "Longitude" : -3.7033, "City" : "Madrid", "Value" : 1.157, "id" : "43" }, { "Latitude" : 42.5075, "Longitude" : 1.5218, "City" : "Andorra la Vella", "Value" : 0.516, "id" : "43" }, { "Latitude" : 43.7325, "Longitude" : 7.4189, "City" : "Monaco", "Value" : 1.719, "id" : "43" }, { "Latitude" : 43.9424, "Longitude" : 12.4578, "City" : "San Marino", "Value" : 0.754, "id" : "43" }, { "Latitude" : 41.8955, "Longitude" : 12.4823, "City" : "Rome", "Value" : 5.343, "id" : "43" }, { "Latitude" : 46.0514, "Longitude" : 14.506, "City" : "Ljubljana", "Value" : 0.529, "id" : "43" }, { "Latitude" : 43.8608, "Longitude" : 18.4214, "City" : "Sarajevo", "Value" : 0.251, "id" : "43" }, { "Latitude" : 44.8048, "Longitude" : 20.4781, "City" : "Belgrade", "Value" : 0.574, "id" : "43" }, { "Latitude" : 42.674, "Longitude" : 21.1788, "City" : "Prishtine", "Value" : 1.385, "id" : "43" }, { "Latitude" : 42.0024, "Longitude" : 21.4361, "City" : "Skopje", "Value" : 1.206, "id" : "43" }, { "Latitude" : 41.3317, "Longitude" : 19.8172, "City" : "Tirana", "Value" : 0.815, "id" : "43" }, { "Latitude" : 42.7105, "Longitude" : 23.3238, "City" : "Sofia", "Value" : 0.249, "id" : "43" }, { "Latitude" : 44.4479, "Longitude" : 26.0979, "City" : "Bucharest", "Value" : 3.143, "id" : "43" }, { "Latitude" : 47.0167, "Longitude" : 28.8497, "City" : "Chisinau", "Value" : 1.622, "id" : "43" }, { "Latitude" : 50.4422, "Longitude" : 30.5367, "City" : "Kiev", "Value" : 0.818, "id" : "43" }, { "Latitude" : 55.7558, "Longitude" : 37.6176, "City" : "Moscow", "Value" : 1.281, "id" : "43" }, { "Latitude" : 37.9792, "Longitude" : 23.7166, "City" : "Athens", "Value" : 0.823, "id" : "43" }, { "Latitude" : 35.9042, "Longitude" : 14.5189, "City" : "Valletta", "Value" : 1.765, "id" : "43" }, { "Latitude" : 59.9138, "Longitude" : 10.7387, "City" : "Oslo", "Value" : 2.531, "id" : "43" }, { "Latitude" : 47.1411, "Longitude" : 9.5215, "City" : "Vaduz", "Value" : 0.959, "id" : "44" }, { "Latitude" : 46.948, "Longitude" : 7.4481, "City" : "Bern", "Value" : 10.705, "id" : "44" }, { "Latitude" : 49.61, "Longitude" : 6.1296, "City" : "Luxembourg", "Value" : 1.431, "id" : "44" }, { "Latitude" : 52.3738, "Longitude" : 4.891, "City" : "Amsterdam", "Value" : 0.539, "id" : "44" }, { "Latitude" : 48.8567, "Longitude" : 2.351, "City" : "Paris", "Value" : 0.31, "id" : "44" }, { "Latitude" : 51.5002, "Longitude" : -0.1262, "City" : "London", "Value" : 0.167, "id" : "44" }, { "Latitude" : 49.1919, "Longitude" : -2.1071, "City" : "Saint Helier", "Value" : 3.33, "id" : "44" }, { "Latitude" : 49.466, "Longitude" : -2.5522, "City" : "Saint Peter Port", "Value" : 1.451, "id" : "44" }, { "Latitude" : 54.167, "Longitude" : -4.4821, "City" : "Douglas", "Value" : 0.516, "id" : "44" }, { "Latitude" : 53.3441, "Longitude" : -6.2675, "City" : "Dublin", "Value" : 0.532, "id" : "44" }, { "Latitude" : 62.0177, "Longitude" : -6.7719, "City" : "Torshavn (on Streymoy)", "Value" : 1.122, "id" : "44" }, { "Latitude" : 64.1353, "Longitude" : -21.8952, "City" : "Reykjavik", "Value" : 0.413, "id" : "44" }, { "Latitude" : 38.7072, "Longitude" : -9.1355, "City" : "Lisbon", "Value" : 0.198, "id" : "44" }, { "Latitude" : 36.1377, "Longitude" : -5.3453, "City" : "Gibraltar", "Value" : 2.644, "id" : "44" }, { "Latitude" : 40.4167, "Longitude" : -3.7033, "City" : "Madrid", "Value" : 1.157, "id" : "44" }, { "Latitude" : 42.5075, "Longitude" : 1.5218, "City" : "Andorra la Vella", "Value" : 0.516, "id" : "44" }, { "Latitude" : 43.7325, "Longitude" : 7.4189, "City" : "Monaco", "Value" : 1.719, "id" : "44" },